{"type":"FeatureCollection","features":[{"type":"Feature","geometry":{"type":"Point","coordinates":[151.0434,-33.89914]},"properties":{"board":"kilter","name":"1UP Bouldering","src":"hangtime"}},{"type":"Feature","geometry":{"type":"Point","coordinates":[-2.12722,51.84518]},"properties":{"board":"kilter","name":"270 Climbing Park","src":"hangtime"}},{"type":"Feature","geometry":{"type":"Point","coordinates":[12.10269,54.09754]},"properties":{"board":"kilter","name":"45 Grad","src":"hangtime"}},{"type":"Feature","geometry":{"type":"Point","coordinates":[5.40718,43.31385]},"properties":{"board":"kilter","name":"45° Escalade","src":"hangtime"}},{"type":"Feature","geometry":{"type":"Point","coordinates":[17.4505,68.44631]},"properties":{"board":"kilter","name":"68° Nord Buldrehall","src":"hangtime"}},{"type":"Feature","geometry":{"type":"Point","coordinates":[13.10387,52.38519]},"properties":{"board":"kilter","name":"7a+ Boulderhalle Potsdam","src":"hangtime"}},{"type":"Feature","geometry":{"type":"Point","coordinates":[153.1519274200911,-25.215260569377044]},"properties":{"board":"kilter","name":"7x10 HW NK","src":"hangtime"}},{"type":"Feature","geometry":{"type":"Point","coordinates":[151.15055,-33.80785]},"properties":{"board":"kilter","name":"9 Degrees Lane Cove","src":"hangtime"}},{"type":"Feature","geometry":{"type":"Point","coordinates":[153.08706,-27.45594]},"properties":{"board":"kilter","name":"9 Degrees Morningside","src":"hangtime"}},{"type":"Feature","geometry":{"type":"Point","coordinates":[151.21174,-33.89786]},"properties":{"board":"kilter","name":"9 Degrees Waterloo","src":"hangtime"}},{"type":"Feature","geometry":{"type":"Point","coordinates":[5.57895,45.38471]},"properties":{"board":"kilter","name":"ABLOK Voiron","src":"hangtime"}},{"type":"Feature","geometry":{"type":"Point","coordinates":[-123.27864,44.56317]},"properties":{"board":"kilter","name":"ALI Dixon Climbing Center","src":"hangtime"}},{"type":"Feature","geometry":{"type":"Point","coordinates":[7.520278057672328,47.58075164301288]},"properties":{"board":"kilter","name":"ALPI360","src":"hangtime"}},{"type":"Feature","geometry":{"type":"Point","coordinates":[-115.76467,49.53477]},"properties":{"board":"kilter","name":"ARQ Mountain Center","src":"hangtime"}},{"type":"Feature","geometry":{"type":"Point","coordinates":[20.01703,50.0616]},"properties":{"board":"kilter","name":"AVATAR Central Ruchu","src":"hangtime"}},{"type":"Feature","geometry":{"type":"Point","coordinates":[10.134842157670375,56.158950834556414]},"properties":{"board":"kilter","name":"Aarhus klatreklub","src":"hangtime"}},{"type":"Feature","geometry":{"type":"Point","coordinates":[121.44032,31.24216]},"properties":{"board":"kilter","name":"Acme Climbing 189","src":"hangtime"}},{"type":"Feature","geometry":{"type":"Point","coordinates":[9.29915,48.8163]},"properties":{"board":"kilter","name":"Active Garden Waiblingen","src":"hangtime"}},{"type":"Feature","geometry":{"type":"Point","coordinates":[-100.35028,25.67869]},"properties":{"board":"kilter","name":"Adamanta Gonzalitos","src":"hangtime"}},{"type":"Feature","geometry":{"type":"Point","coordinates":[-98.23654,19.02524]},"properties":{"board":"kilter","name":"Adamanta Puebla","src":"hangtime"}},{"type":"Feature","geometry":{"type":"Point","coordinates":[-99.23639,19.49339]},"properties":{"board":"kilter","name":"Adamanta Satélite","src":"hangtime"}},{"type":"Feature","geometry":{"type":"Point","coordinates":[115.92525,-31.95621]},"properties":{"board":"kilter","name":"Adrenaline Vault Belmont","src":"hangtime"}},{"type":"Feature","geometry":{"type":"Point","coordinates":[-121.9666,36.97181]},"properties":{"board":"kilter","name":"Agility Boulders","src":"hangtime"}},{"type":"Feature","geometry":{"type":"Point","coordinates":[20.03198,51.53491]},"properties":{"board":"kilter","name":"Akademia Sportu Proem","src":"hangtime"}},{"type":"Feature","geometry":{"type":"Point","coordinates":[-149.87105,61.19139]},"properties":{"board":"kilter","name":"Alaska Rock Gym","src":"hangtime"}},{"type":"Feature","geometry":{"type":"Point","coordinates":[-84.29684,30.48009]},"properties":{"board":"kilter","name":"Alchemy Climbing","src":"hangtime"}},{"type":"Feature","geometry":{"type":"Point","coordinates":[-73.59823,45.52796]},"properties":{"board":"kilter","name":"Allez Up Mile End","src":"hangtime"}},{"type":"Feature","geometry":{"type":"Point","coordinates":[35.20792,31.75221]},"properties":{"board":"kilter","name":"Allé מרכז הטיפוס של ירושלים","src":"hangtime"}},{"type":"Feature","geometry":{"type":"Point","coordinates":[16.375051953580066,48.21057937040195]},"properties":{"board":"kilter","name":"Alpenverein Austria","src":"hangtime"}},{"type":"Feature","geometry":{"type":"Point","coordinates":[16.3614044253851,48.20227277056378]},"properties":{"board":"kilter","name":"Alpenverein Wien","src":"hangtime"}},{"type":"Feature","geometry":{"type":"Point","coordinates":[153.47779,-28.1455]},"properties":{"board":"kilter","name":"Alpine Indoor Climbing Currumbin","src":"hangtime"}},{"type":"Feature","geometry":{"type":"Point","coordinates":[-111.85627,33.2646]},"properties":{"board":"kilter","name":"Alta Boulders Chandler","src":"hangtime"}},{"type":"Feature","geometry":{"type":"Point","coordinates":[6.13135,49.09259]},"properties":{"board":"kilter","name":"Altissimo Metz Loisirama","src":"hangtime"}},{"type":"Feature","geometry":{"type":"Point","coordinates":[1.40788,43.55127]},"properties":{"board":"kilter","name":"Altissimo Toulouse Portet","src":"hangtime"}},{"type":"Feature","geometry":{"type":"Point","coordinates":[-75.73697,45.44811]},"properties":{"board":"kilter","name":"Altitude Gym Gatineau","src":"hangtime"}},{"type":"Feature","geometry":{"type":"Point","coordinates":[-75.91137,45.29791]},"properties":{"board":"kilter","name":"Altitude Gym Kanata","src":"hangtime"}},{"type":"Feature","geometry":{"type":"Point","coordinates":[-75.50923,45.48134]},"properties":{"board":"kilter","name":"Altitude Gym Orleans","src":"hangtime"}},{"type":"Feature","geometry":{"type":"Point","coordinates":[10.72374,59.91525]},"properties":{"board":"kilter","name":"Ambassaden Trening","src":"hangtime"}},{"type":"Feature","geometry":{"type":"Point","coordinates":[-103.39662,20.65843]},"properties":{"board":"kilter","name":"Ameyalli","src":"hangtime"}},{"type":"Feature","geometry":{"type":"Point","coordinates":[2.36549,48.80399]},"properties":{"board":"kilter","name":"Antrebloc","src":"hangtime"}},{"type":"Feature","geometry":{"type":"Point","coordinates":[106.77520712298725,-6.190983137451172]},"properties":{"board":"kilter","name":"Ape Boulder Camp","src":"hangtime"}},{"type":"Feature","geometry":{"type":"Point","coordinates":[6.53861,53.21729]},"properties":{"board":"kilter","name":"Apex Boulders","src":"hangtime"}},{"type":"Feature","geometry":{"type":"Point","coordinates":[-82.20146,36.56563]},"properties":{"board":"kilter","name":"Appalachian Bouldering Center","src":"hangtime"}},{"type":"Feature","geometry":{"type":"Point","coordinates":[-123.09036,49.19171]},"properties":{"board":"kilter","name":"Approach Climbing","src":"hangtime"}},{"type":"Feature","geometry":{"type":"Point","coordinates":[3.43687,46.11474]},"properties":{"board":"kilter","name":"Arca Bloc","src":"hangtime"}},{"type":"Feature","geometry":{"type":"Point","coordinates":[39.135,21.61947]},"properties":{"board":"kilter","name":"Arena Fitness Innovation/Saudi Climbing & Hiking Federation","src":"hangtime"}},{"type":"Feature","geometry":{"type":"Point","coordinates":[-98.48408264962742,29.439938893369703]},"properties":{"board":"kilter","name":"Armadillo Boulders Downtown","src":"hangtime"}},{"type":"Feature","geometry":{"type":"Point","coordinates":[-97.9622,29.8633]},"properties":{"board":"kilter","name":"Armadillo Boulders San Marcos","src":"hangtime"}},{"type":"Feature","geometry":{"type":"Point","coordinates":[-98.4477,29.65699]},"properties":{"board":"kilter","name":"Armadillo Boulders Stone Oak","src":"hangtime"}},{"type":"Feature","geometry":{"type":"Point","coordinates":[7.19328332618448,43.71040163145131]},"properties":{"board":"kilter","name":"Art Bloc Escalade","src":"hangtime"}},{"type":"Feature","geometry":{"type":"Point","coordinates":[7.19327,43.71032]},"properties":{"board":"kilter","name":"ArtBloc Salle d'Escalade","src":"hangtime"}},{"type":"Feature","geometry":{"type":"Point","coordinates":[-116.28132,43.6513]},"properties":{"board":"kilter","name":"Asana Climbing Gym","src":"hangtime"}},{"type":"Feature","geometry":{"type":"Point","coordinates":[-79.89598,40.45091]},"properties":{"board":"kilter","name":"Ascend Climbing Point Breeze","src":"hangtime"}},{"type":"Feature","geometry":{"type":"Point","coordinates":[-72.90534,41.31563]},"properties":{"board":"kilter","name":"Ascent Climbing Gym","src":"hangtime"}},{"type":"Feature","geometry":{"type":"Point","coordinates":[-105.04117,40.55941]},"properties":{"board":"kilter","name":"Ascent Studio Climbing & Fitness","src":"hangtime"}},{"type":"Feature","geometry":{"type":"Point","coordinates":[120.21197,30.18347]},"properties":{"board":"kilter","name":"Ascent 杭州顽攀攀岩","src":"hangtime"}},{"type":"Feature","geometry":{"type":"Point","coordinates":[-106.82066,39.19324]},"properties":{"board":"kilter","name":"Aspen Red Brick Recreation Center","src":"hangtime"}},{"type":"Feature","geometry":{"type":"Point","coordinates":[-79.89567089814535,43.51374599053669]},"properties":{"board":"kilter","name":"Aspire Climbing Milton","src":"hangtime"}},{"type":"Feature","geometry":{"type":"Point","coordinates":[-2.1872,43.05242]},"properties":{"board":"kilter","name":"AtariA Boulder","src":"hangtime"}},{"type":"Feature","geometry":{"type":"Point","coordinates":[-72.73105,46.56607]},"properties":{"board":"kilter","name":"Atelier Bloc Escalade","src":"hangtime"}},{"type":"Feature","geometry":{"type":"Point","coordinates":[6.13271,45.90719]},"properties":{"board":"kilter","name":"Atome","src":"hangtime"}},{"type":"Feature","geometry":{"type":"Point","coordinates":[5.88808,45.27442]},"properties":{"board":"kilter","name":"Au Perchoir","src":"hangtime"}},{"type":"Feature","geometry":{"type":"Point","coordinates":[-97.69628,30.26332]},"properties":{"board":"kilter","name":"Austin Bouldering Porject Springdale","src":"hangtime"}},{"type":"Feature","geometry":{"type":"Point","coordinates":[-97.79908,30.23066]},"properties":{"board":"kilter","name":"Austin Bouldering Project Westgate","src":"hangtime"}},{"type":"Feature","geometry":{"type":"Point","coordinates":[-64.23966,-31.3586]},"properties":{"board":"kilter","name":"Avista Cerro","src":"hangtime"}},{"type":"Feature","geometry":{"type":"Point","coordinates":[-3.78346,40.28517]},"properties":{"board":"kilter","name":"Awesome Boulder Center","src":"hangtime"}},{"type":"Feature","geometry":{"type":"Point","coordinates":[-8.53863,51.88996]},"properties":{"board":"kilter","name":"Awesome Walls Cork","src":"hangtime"}},{"type":"Feature","geometry":{"type":"Point","coordinates":[-1.44673,53.39957]},"properties":{"board":"kilter","name":"Awesome Walls Sheffield","src":"hangtime"}},{"type":"Feature","geometry":{"type":"Point","coordinates":[-3.35503,47.77882]},"properties":{"board":"kilter","name":"B'wall Lorient","src":"hangtime"}},{"type":"Feature","geometry":{"type":"Point","coordinates":[-2.76552,47.63811]},"properties":{"board":"kilter","name":"B'wall Vannes","src":"hangtime"}},{"type":"Feature","geometry":{"type":"Point","coordinates":[9.08345,48.52237]},"properties":{"board":"kilter","name":"B12 Tübingen","src":"hangtime"}},{"type":"Feature","geometry":{"type":"Point","coordinates":[7.68359,47.52622]},"properties":{"board":"kilter","name":"B2 Boulders & Bar","src":"hangtime"}},{"type":"Feature","geometry":{"type":"Point","coordinates":[15.43472,47.05068]},"properties":{"board":"kilter","name":"BLOC house Graz","src":"hangtime"}},{"type":"Feature","geometry":{"type":"Point","coordinates":[5.96838,49.49416]},"properties":{"board":"kilter","name":"BLOCX Urban Fitness","src":"hangtime"}},{"type":"Feature","geometry":{"type":"Point","coordinates":[8.30546,47.46919]},"properties":{"board":"kilter","name":"BOUBA Boulder Baden","src":"hangtime"}},{"type":"Feature","geometry":{"type":"Point","coordinates":[7.13802,51.26601]},"properties":{"board":"kilter","name":"Bahnhof Blo","src":"hangtime"}},{"type":"Feature","geometry":{"type":"Point","coordinates":[-89.42004,43.07687]},"properties":{"board":"kilter","name":"Bakke Recreation & Wellbeing Center","src":"hangtime"}},{"type":"Feature","geometry":{"type":"Point","coordinates":[14.51759,53.40676]},"properties":{"board":"kilter","name":"Bald Port","src":"hangtime"}},{"type":"Feature","geometry":{"type":"Point","coordinates":[23.36199,42.62433]},"properties":{"board":"kilter","name":"Balkan Climbing","src":"hangtime"}},{"type":"Feature","geometry":{"type":"Point","coordinates":[11.99087,47.87958]},"properties":{"board":"kilter","name":"Basislager Bad Aibling","src":"hangtime"}},{"type":"Feature","geometry":{"type":"Point","coordinates":[101.62692,3.13058]},"properties":{"board":"kilter","name":"Batuu Climbing","src":"hangtime"}},{"type":"Feature","geometry":{"type":"Point","coordinates":[145.1689,-38.09379]},"properties":{"board":"kilter","name":"Bayside Rock","src":"hangtime"}},{"type":"Feature","geometry":{"type":"Point","coordinates":[4.87515,50.45016]},"properties":{"board":"kilter","name":"BeBloc","src":"hangtime"}},{"type":"Feature","geometry":{"type":"Point","coordinates":[-81.42081,30.32726]},"properties":{"board":"kilter","name":"Beaches Rock Gym","src":"hangtime"}},{"type":"Feature","geometry":{"type":"Point","coordinates":[-4.25283,53.13859]},"properties":{"board":"kilter","name":"Beacon Climbing Center","src":"hangtime"}},{"type":"Feature","geometry":{"type":"Point","coordinates":[4.2517792,53.1406108]},"properties":{"board":"kilter","name":"Beacon Climbing Centre","src":"hangtime"}},{"type":"Feature","geometry":{"type":"Point","coordinates":[4.4036,51.23389]},"properties":{"board":"kilter","name":"Beest Boulders Antwerpen","src":"hangtime"}},{"type":"Feature","geometry":{"type":"Point","coordinates":[4.75726,51.59598]},"properties":{"board":"kilter","name":"Beest Boulders Breda","src":"hangtime"}},{"type":"Feature","geometry":{"type":"Point","coordinates":[4.356,51.99991]},"properties":{"board":"kilter","name":"Beest Boulders Delft","src":"hangtime"}},{"type":"Feature","geometry":{"type":"Point","coordinates":[4.3106,52.07613]},"properties":{"board":"kilter","name":"Beest Boulders Den Haag Centrum","src":"hangtime"}},{"type":"Feature","geometry":{"type":"Point","coordinates":[4.8512706,52.392482]},"properties":{"board":"kilter","name":"Beest Boulders Het Lab","src":"hangtime"}},{"type":"Feature","geometry":{"type":"Point","coordinates":[4.4763,51.92791]},"properties":{"board":"kilter","name":"Beest Boulders Rotterdam","src":"hangtime"}},{"type":"Feature","geometry":{"type":"Point","coordinates":[121.484124,31.249796]},"properties":{"board":"kilter","name":"Benchmark Climbing Gym","src":"hangtime"}},{"type":"Feature","geometry":{"type":"Point","coordinates":[5.265,60.29386]},"properties":{"board":"kilter","name":"Bergen Klatresenter Fana","src":"hangtime"}},{"type":"Feature","geometry":{"type":"Point","coordinates":[5.2823,60.3924]},"properties":{"board":"kilter","name":"Bergen Klatresenter Laksevåg","src":"hangtime"}},{"type":"Feature","geometry":{"type":"Point","coordinates":[6.91706,51.17039]},"properties":{"board":"kilter","name":"Bergstation Kletter + Boulderzentrum","src":"hangtime"}},{"type":"Feature","geometry":{"type":"Point","coordinates":[13.40988,52.56398]},"properties":{"board":"kilter","name":"Berta Block Boulderhalle Berlin","src":"hangtime"}},{"type":"Feature","geometry":{"type":"Point","coordinates":[-73.78284,45.47917]},"properties":{"board":"kilter","name":"Beta Bloc","src":"hangtime"}},{"type":"Feature","geometry":{"type":"Point","coordinates":[-111.63632,35.18891]},"properties":{"board":"kilter","name":"Beta Bouldering Gym","src":"hangtime"}},{"type":"Feature","geometry":{"type":"Point","coordinates":[12.55064,55.65605]},"properties":{"board":"kilter","name":"Beta Boulders Copenhagen South","src":"hangtime"}},{"type":"Feature","geometry":{"type":"Point","coordinates":[121.452322,31.237007]},"properties":{"board":"kilter","name":"Beta Boulders Gym JingAn","src":"hangtime"}},{"type":"Feature","geometry":{"type":"Point","coordinates":[121.42787,31.13603]},"properties":{"board":"kilter","name":"Beta Boulders Gym Xuhui","src":"hangtime"}},{"type":"Feature","geometry":{"type":"Point","coordinates":[12.56107,55.70698]},"properties":{"board":"kilter","name":"Beta Boulders Østerbro","src":"hangtime"}},{"type":"Feature","geometry":{"type":"Point","coordinates":[-74.0487,4.70557]},"properties":{"board":"kilter","name":"Beta Climbing Gym 19","src":"hangtime"}},{"type":"Feature","geometry":{"type":"Point","coordinates":[-74.06266,4.6598]},"properties":{"board":"kilter","name":"Beta Climbing Gym 72","src":"hangtime"}},{"type":"Feature","geometry":{"type":"Point","coordinates":[-71.06895,48.42601]},"properties":{"board":"kilter","name":"Beta Crux","src":"hangtime"}},{"type":"Feature","geometry":{"type":"Point","coordinates":[151.00729,-33.87058]},"properties":{"board":"kilter","name":"Beta One Bouldering Gym","src":"hangtime"}},{"type":"Feature","geometry":{"type":"Point","coordinates":[138.57853,-34.9434]},"properties":{"board":"kilter","name":"Beyond Bouldering Keswick","src":"hangtime"}},{"type":"Feature","geometry":{"type":"Point","coordinates":[138.57631,-34.91386]},"properties":{"board":"kilter","name":"Beyond Bouldering Thebarton","src":"hangtime"}},{"type":"Feature","geometry":{"type":"Point","coordinates":[-122.97157,45.51164]},"properties":{"board":"kilter","name":"Beyond the Wall Climbing","src":"hangtime"}},{"type":"Feature","geometry":{"type":"Point","coordinates":[9.90762,51.54719]},"properties":{"board":"kilter","name":"BiG Boulderhalle","src":"hangtime"}},{"type":"Feature","geometry":{"type":"Point","coordinates":[-93.45714,44.9808]},"properties":{"board":"kilter","name":"Big Island Bouldering","src":"hangtime"}},{"type":"Feature","geometry":{"type":"Point","coordinates":[9.28872,45.5452]},"properties":{"board":"kilter","name":"Big Walls","src":"hangtime"}},{"type":"Feature","geometry":{"type":"Point","coordinates":[7.54135,44.4262]},"properties":{"board":"kilter","name":"BigUp Climbing","src":"hangtime"}},{"type":"Feature","geometry":{"type":"Point","coordinates":[7.47294,46.95906]},"properties":{"board":"kilter","name":"Bimano Bern","src":"hangtime"}},{"type":"Feature","geometry":{"type":"Point","coordinates":[7.54397,47.19916]},"properties":{"board":"kilter","name":"Bimano Solothurn","src":"hangtime"}},{"type":"Feature","geometry":{"type":"Point","coordinates":[12.56083,55.66739]},"properties":{"board":"kilter","name":"Bison Boulders Kødbyen","src":"hangtime"}},{"type":"Feature","geometry":{"type":"Point","coordinates":[-2.88748,43.2903]},"properties":{"board":"kilter","name":"Biwak Climbing","src":"hangtime"}},{"type":"Feature","geometry":{"type":"Point","coordinates":[18.47255,-33.91024]},"properties":{"board":"kilter","name":"Bloc 11 Paarden Eiland","src":"hangtime"}},{"type":"Feature","geometry":{"type":"Point","coordinates":[-75.7186,45.46736]},"properties":{"board":"kilter","name":"Bloc 9.81","src":"hangtime"}},{"type":"Feature","geometry":{"type":"Point","coordinates":[-73.61638,45.72831]},"properties":{"board":"kilter","name":"Bloc Action","src":"hangtime"}},{"type":"Feature","geometry":{"type":"Point","coordinates":[-2.57022,51.46842]},"properties":{"board":"kilter","name":"Bloc Climbing Centre","src":"hangtime"}},{"type":"Feature","geometry":{"type":"Point","coordinates":[2.18866,41.39718]},"properties":{"board":"kilter","name":"Bloc District Barcelona","src":"hangtime"}},{"type":"Feature","geometry":{"type":"Point","coordinates":[-83.00785,39.95047]},"properties":{"board":"kilter","name":"Bloc Garten","src":"hangtime"}},{"type":"Feature","geometry":{"type":"Point","coordinates":[151.16757,-33.90788]},"properties":{"board":"kilter","name":"Bloc Haus MKV","src":"hangtime"}},{"type":"Feature","geometry":{"type":"Point","coordinates":[2.47222,48.20484]},"properties":{"board":"kilter","name":"Bloc Lodge","src":"hangtime"}},{"type":"Feature","geometry":{"type":"Point","coordinates":[12.39553,51.35212]},"properties":{"board":"kilter","name":"Bloc No Limit Boulderhalle Leipzig","src":"hangtime"}},{"type":"Feature","geometry":{"type":"Point","coordinates":[4.86817,45.75495]},"properties":{"board":"kilter","name":"Bloc Session Lyon Centre","src":"hangtime"}},{"type":"Feature","geometry":{"type":"Point","coordinates":[2.6809708770664056,48.87110783828508]},"properties":{"board":"kilter","name":"Bloc Session Marne-la-Vallée","src":"hangtime"}},{"type":"Feature","geometry":{"type":"Point","coordinates":[1.07746,49.44583]},"properties":{"board":"kilter","name":"Bloc Session Rouen","src":"hangtime"}},{"type":"Feature","geometry":{"type":"Point","coordinates":[7.73108,48.53288]},"properties":{"board":"kilter","name":"Bloc Session Strasbourg Illkirch","src":"hangtime"}},{"type":"Feature","geometry":{"type":"Point","coordinates":[-73.65752,45.53228]},"properties":{"board":"kilter","name":"Bloc Shop Chabanel","src":"hangtime"}},{"type":"Feature","geometry":{"type":"Point","coordinates":[-73.61185,45.53037]},"properties":{"board":"kilter","name":"Bloc Shop Mile-Ex","src":"hangtime"}},{"type":"Feature","geometry":{"type":"Point","coordinates":[14.73238,47.19601]},"properties":{"board":"kilter","name":"Bloc Spot Murtal","src":"hangtime"}},{"type":"Feature","geometry":{"type":"Point","coordinates":[1.51116,42.49797]},"properties":{"board":"kilter","name":"BlocCafé Climbing","src":"hangtime"}},{"type":"Feature","geometry":{"type":"Point","coordinates":[149.14169,-35.21487]},"properties":{"board":"kilter","name":"BlocHaus MCL","src":"hangtime"}},{"type":"Feature","geometry":{"type":"Point","coordinates":[-82.42932,34.83659]},"properties":{"board":"kilter","name":"BlocHaven","src":"hangtime"}},{"type":"Feature","geometry":{"type":"Point","coordinates":[11.62825,52.16263]},"properties":{"board":"kilter","name":"BlocSchmiede Boulderhalle","src":"hangtime"}},{"type":"Feature","geometry":{"type":"Point","coordinates":[4.37419,45.4419]},"properties":{"board":"kilter","name":"Blocabrac","src":"hangtime"}},{"type":"Feature","geometry":{"type":"Point","coordinates":[9.69699,50.53805]},"properties":{"board":"kilter","name":"Block Barock Fulda","src":"hangtime"}},{"type":"Feature","geometry":{"type":"Point","coordinates":[2.42529,48.61244]},"properties":{"board":"kilter","name":"Block'Out Evry-Lisses","src":"hangtime"}},{"type":"Feature","geometry":{"type":"Point","coordinates":[0.69433,47.43259]},"properties":{"board":"kilter","name":"Block'Out Tours","src":"hangtime"}},{"type":"Feature","geometry":{"type":"Point","coordinates":[5.26475,43.42825]},"properties":{"board":"kilter","name":"Block'Out Vitrolles","src":"hangtime"}},{"type":"Feature","geometry":{"type":"Point","coordinates":[-81.59618775767223,30.264229565961365]},"properties":{"board":"kilter","name":"Blocker Boulders","src":"hangtime"}},{"type":"Feature","geometry":{"type":"Point","coordinates":[16.35973,48.19081]},"properties":{"board":"kilter","name":"Blockfabrik","src":"hangtime"}},{"type":"Feature","geometry":{"type":"Point","coordinates":[-70.60718,-33.44094]},"properties":{"board":"kilter","name":"Bloclab Climbing","src":"hangtime"}},{"type":"Feature","geometry":{"type":"Point","coordinates":[6.97223,43.61146]},"properties":{"board":"kilter","name":"Blocparty Climbing","src":"hangtime"}},{"type":"Feature","geometry":{"type":"Point","coordinates":[-43.62311,-19.33012]},"properties":{"board":"kilter","name":"Blocs Brasil","src":"hangtime"}},{"type":"Feature","geometry":{"type":"Point","coordinates":[12.04509,44.22727]},"properties":{"board":"kilter","name":"Blocstation acsd","src":"hangtime"}},{"type":"Feature","geometry":{"type":"Point","coordinates":[-97.48122,35.65458]},"properties":{"board":"kilter","name":"Blocworks Edmond","src":"hangtime"}},{"type":"Feature","geometry":{"type":"Point","coordinates":[16.98068,52.37399]},"properties":{"board":"kilter","name":"Blok Line Poznań","src":"hangtime"}},{"type":"Feature","geometry":{"type":"Point","coordinates":[24.56646,46.55842]},"properties":{"board":"kilter","name":"Blokx Mures","src":"hangtime"}},{"type":"Feature","geometry":{"type":"Point","coordinates":[-77.03387,-12.08984]},"properties":{"board":"kilter","name":"Bloque","src":"hangtime"}},{"type":"Feature","geometry":{"type":"Point","coordinates":[-119.99937,38.90609]},"properties":{"board":"kilter","name":"Blue Granite Climbing Gym","src":"hangtime"}},{"type":"Feature","geometry":{"type":"Point","coordinates":[9.60804,47.79203]},"properties":{"board":"kilter","name":"Blöckle","src":"hangtime"}},{"type":"Feature","geometry":{"type":"Point","coordinates":[114.17565974232724,22.277204660983397]},"properties":{"board":"kilter","name":"BoardRoom","src":"hangtime"}},{"type":"Feature","geometry":{"type":"Point","coordinates":[-121.3032,44.03913]},"properties":{"board":"kilter","name":"Boardworks Climbing","src":"hangtime"}},{"type":"Feature","geometry":{"type":"Point","coordinates":[-113.9644,50.93568]},"properties":{"board":"kilter","name":"Bolder Climbing Elevated","src":"hangtime"}},{"type":"Feature","geometry":{"type":"Point","coordinates":[4.43368,51.90855]},"properties":{"board":"kilter","name":"Bolder Neoliet Rotterdam","src":"hangtime"}},{"type":"Feature","geometry":{"type":"Point","coordinates":[14.37418,46.23628]},"properties":{"board":"kilter","name":"Bolder Scena Kranj","src":"hangtime"}},{"type":"Feature","geometry":{"type":"Point","coordinates":[25.26907,54.66982]},"properties":{"board":"kilter","name":"Bonobo Climbing","src":"hangtime"}},{"type":"Feature","geometry":{"type":"Point","coordinates":[5.28177,51.69594]},"properties":{"board":"kilter","name":"Bossche Boulders","src":"hangtime"}},{"type":"Feature","geometry":{"type":"Point","coordinates":[-71.10588,42.38226]},"properties":{"board":"kilter","name":"Boston Bouldering Project","src":"hangtime"}},{"type":"Feature","geometry":{"type":"Point","coordinates":[153.12141,-26.73507]},"properties":{"board":"kilter","name":"Bould Move","src":"hangtime"}},{"type":"Feature","geometry":{"type":"Point","coordinates":[4.87252,52.38621]},"properties":{"board":"kilter","name":"Boulder Amsterdam","src":"hangtime"}},{"type":"Feature","geometry":{"type":"Point","coordinates":[8.7709921,53.0756399]},"properties":{"board":"kilter","name":"Boulder Base Bremen - Tabakquartier","src":"hangtime"}},{"type":"Feature","geometry":{"type":"Point","coordinates":[-80.11931,26.23219]},"properties":{"board":"kilter","name":"Boulder Bloc","src":"hangtime"}},{"type":"Feature","geometry":{"type":"Point","coordinates":[172.59476,-43.53832]},"properties":{"board":"kilter","name":"Boulder Co Christchurch","src":"hangtime"}},{"type":"Feature","geometry":{"type":"Point","coordinates":[-3.53781,50.72]},"properties":{"board":"kilter","name":"Boulder Exe","src":"hangtime"}},{"type":"Feature","geometry":{"type":"Point","coordinates":[7.66743,51.98864]},"properties":{"board":"kilter","name":"Boulder Factory Münster","src":"hangtime"}},{"type":"Feature","geometry":{"type":"Point","coordinates":[7.37104,44.98179]},"properties":{"board":"kilter","name":"Boulder Garage","src":"hangtime"}},{"type":"Feature","geometry":{"type":"Point","coordinates":[0.66268,41.61267]},"properties":{"board":"kilter","name":"Boulder Indoor","src":"hangtime"}},{"type":"Feature","geometry":{"type":"Point","coordinates":[144.96197,-37.77623]},"properties":{"board":"kilter","name":"Boulder Lab Brunswick","src":"hangtime"}},{"type":"Feature","geometry":{"type":"Point","coordinates":[145.12806,-37.92972]},"properties":{"board":"kilter","name":"Boulder Lab Clayton","src":"hangtime"}},{"type":"Feature","geometry":{"type":"Point","coordinates":[145.26925,-37.88366]},"properties":{"board":"kilter","name":"Boulder Lab Ferntree Gully","src":"hangtime"}},{"type":"Feature","geometry":{"type":"Point","coordinates":[3.8663012940657744,43.59922983452772]},"properties":{"board":"kilter","name":"Boulder Line 3","src":"hangtime"}},{"type":"Feature","geometry":{"type":"Point","coordinates":[114.21928,22.31332]},"properties":{"board":"kilter","name":"Boulder MAD","src":"hangtime"}},{"type":"Feature","geometry":{"type":"Point","coordinates":[103.85142,1.30508]},"properties":{"board":"kilter","name":"Boulder Movement Rochor","src":"hangtime"}},{"type":"Feature","geometry":{"type":"Point","coordinates":[5.45634,51.4755]},"properties":{"board":"kilter","name":"Boulder Neoliet Eindhoven","src":"hangtime"}},{"type":"Feature","geometry":{"type":"Point","coordinates":[5.1116,51.56567]},"properties":{"board":"kilter","name":"Boulder Neoliet Tilburg","src":"hangtime"}},{"type":"Feature","geometry":{"type":"Point","coordinates":[144.7682185292665,13.443104764773443]},"properties":{"board":"kilter","name":"Boulder Reservoir","src":"hangtime"}},{"type":"Feature","geometry":{"type":"Point","coordinates":[-70.92547,41.63402]},"properties":{"board":"kilter","name":"Boulder Union","src":"hangtime"}},{"type":"Feature","geometry":{"type":"Point","coordinates":[15.90023,45.79618]},"properties":{"board":"kilter","name":"Boulder Zona Climbing Gym","src":"hangtime"}},{"type":"Feature","geometry":{"type":"Point","coordinates":[103.74827,1.33109]},"properties":{"board":"kilter","name":"Boulder+ The Chevrons","src":"hangtime"}},{"type":"Feature","geometry":{"type":"Point","coordinates":[8.54014,47.19867]},"properties":{"board":"kilter","name":"BoulderBaar","src":"hangtime"}},{"type":"Feature","geometry":{"type":"Point","coordinates":[7.43631,46.94673]},"properties":{"board":"kilter","name":"BoulderBad Muubeeri","src":"hangtime"}},{"type":"Feature","geometry":{"type":"Point","coordinates":[6.78411,50.79399]},"properties":{"board":"kilter","name":"BoulderEck Erftstadt","src":"hangtime"}},{"type":"Feature","geometry":{"type":"Point","coordinates":[-123.3658,48.44048]},"properties":{"board":"kilter","name":"BoulderHouse Victoria","src":"hangtime"}},{"type":"Feature","geometry":{"type":"Point","coordinates":[-5.96282,54.57953]},"properties":{"board":"kilter","name":"BoulderWorld Belfast","src":"hangtime"}},{"type":"Feature","geometry":{"type":"Point","coordinates":[16.36862,48.23153]},"properties":{"board":"kilter","name":"Boulderbar Hannovergasse","src":"hangtime"}},{"type":"Feature","geometry":{"type":"Point","coordinates":[16.38501,48.18199]},"properties":{"board":"kilter","name":"Boulderbar Hauptbahnhof","src":"hangtime"}},{"type":"Feature","geometry":{"type":"Point","coordinates":[16.38472,48.18139]},"properties":{"board":"kilter","name":"Boulderbar Hauptbahnhof Plus","src":"hangtime"}},{"type":"Feature","geometry":{"type":"Point","coordinates":[14.23284,48.24757]},"properties":{"board":"kilter","name":"Boulderbar Linz","src":"hangtime"}},{"type":"Feature","geometry":{"type":"Point","coordinates":[6.98695,51.44823]},"properties":{"board":"kilter","name":"Boulderbar Neoliet Essen","src":"hangtime"}},{"type":"Feature","geometry":{"type":"Point","coordinates":[7.08503,51.52223]},"properties":{"board":"kilter","name":"Boulderbar Neoliet Gelsenkirchen","src":"hangtime"}},{"type":"Feature","geometry":{"type":"Point","coordinates":[16.50966,48.23048]},"properties":{"board":"kilter","name":"Boulderbar Seestadt","src":"hangtime"}},{"type":"Feature","geometry":{"type":"Point","coordinates":[15.63578,48.21651]},"properties":{"board":"kilter","name":"Boulderbar St. Pölten","src":"hangtime"}},{"type":"Feature","geometry":{"type":"Point","coordinates":[16.33576,48.16135]},"properties":{"board":"kilter","name":"Boulderbar Wienerberg","src":"hangtime"}},{"type":"Feature","geometry":{"type":"Point","coordinates":[15.43638,47.02564]},"properties":{"board":"kilter","name":"Boulderclub Graz","src":"hangtime"}},{"type":"Feature","geometry":{"type":"Point","coordinates":[-118.83040452019476,34.154703019237175]},"properties":{"board":"kilter","name":"Boulderdash Thousand Oaks","src":"hangtime"}},{"type":"Feature","geometry":{"type":"Point","coordinates":[13.59201,51.12048]},"properties":{"board":"kilter","name":"Boulderdrome","src":"hangtime"}},{"type":"Feature","geometry":{"type":"Point","coordinates":[13.45175,52.47998]},"properties":{"board":"kilter","name":"Bouldergarten","src":"hangtime"}},{"type":"Feature","geometry":{"type":"Point","coordinates":[5.09198,51.57716]},"properties":{"board":"kilter","name":"Boulderhal Block013","src":"hangtime"}},{"type":"Feature","geometry":{"type":"Point","coordinates":[4.75602,51.59819]},"properties":{"board":"kilter","name":"Boulderhal Bruut","src":"hangtime"}},{"type":"Feature","geometry":{"type":"Point","coordinates":[4.64789,52.39204]},"properties":{"board":"kilter","name":"Boulderhal De Fabriek Haarlem","src":"hangtime"}},{"type":"Feature","geometry":{"type":"Point","coordinates":[5.07082,52.10039]},"properties":{"board":"kilter","name":"Boulderhal Energiehaven Utrecht","src":"hangtime"}},{"type":"Feature","geometry":{"type":"Point","coordinates":[4.51212,52.15868]},"properties":{"board":"kilter","name":"Boulderhal Krachtstof","src":"hangtime"}},{"type":"Feature","geometry":{"type":"Point","coordinates":[4.48104,52.14559]},"properties":{"board":"kilter","name":"Boulderhal Kunststof","src":"hangtime"}},{"type":"Feature","geometry":{"type":"Point","coordinates":[4.842316028835187,52.33986533412684]},"properties":{"board":"kilter","name":"Boulderhal Luchthaven","src":"hangtime"}},{"type":"Feature","geometry":{"type":"Point","coordinates":[4.2836240000000005,52.11019628136243]},"properties":{"board":"kilter","name":"Boulderhal Nirvana","src":"hangtime"}},{"type":"Feature","geometry":{"type":"Point","coordinates":[4.76679,52.61783]},"properties":{"board":"kilter","name":"Boulderhal Sendmaat","src":"hangtime"}},{"type":"Feature","geometry":{"type":"Point","coordinates":[6.172424421175363,52.247847221009664]},"properties":{"board":"kilter","name":"Boulderhal Vrijhaven","src":"hangtime"}},{"type":"Feature","geometry":{"type":"Point","coordinates":[4.31394,52.06192]},"properties":{"board":"kilter","name":"Boulderhal Walhalla","src":"hangtime"}},{"type":"Feature","geometry":{"type":"Point","coordinates":[5.10472,52.0651]},"properties":{"board":"kilter","name":"Boulderhal Zuidhaven","src":"hangtime"}},{"type":"Feature","geometry":{"type":"Point","coordinates":[4.25458,52.04968]},"properties":{"board":"kilter","name":"Boulderhal de Campus","src":"hangtime"}},{"type":"Feature","geometry":{"type":"Point","coordinates":[11.62995,49.69046]},"properties":{"board":"kilter","name":"Boulderhalle Zugzwang","src":"hangtime"}},{"type":"Feature","geometry":{"type":"Point","coordinates":[8.63595,49.88015]},"properties":{"board":"kilter","name":"Boulderhaus Darmstadt","src":"hangtime"}},{"type":"Feature","geometry":{"type":"Point","coordinates":[8.67916,49.38701]},"properties":{"board":"kilter","name":"Boulderhaus Heidelberg","src":"hangtime"}},{"type":"Feature","geometry":{"type":"Point","coordinates":[8.53509,49.51846]},"properties":{"board":"kilter","name":"Boulderhaus Mannheim","src":"hangtime"}},{"type":"Feature","geometry":{"type":"Point","coordinates":[9.19966,48.49913]},"properties":{"board":"kilter","name":"Boulderhaus Reutlingen","src":"hangtime"}},{"type":"Feature","geometry":{"type":"Point","coordinates":[137.19879,36.60036]},"properties":{"board":"kilter","name":"Bouldering Gym leTruss","src":"hangtime"}},{"type":"Feature","geometry":{"type":"Point","coordinates":[-111.90329,40.75556]},"properties":{"board":"kilter","name":"Bouldering Project Salt Lake","src":"hangtime"}},{"type":"Feature","geometry":{"type":"Point","coordinates":[-93.09154,44.93856]},"properties":{"board":"kilter","name":"Bouldering Project St Paul","src":"hangtime"}},{"type":"Feature","geometry":{"type":"Point","coordinates":[-111.95457,33.4042]},"properties":{"board":"kilter","name":"Bouldering Project Tempe","src":"hangtime"}},{"type":"Feature","geometry":{"type":"Point","coordinates":[24.70167,60.16612]},"properties":{"board":"kilter","name":"Boulderkeskus Espoo","src":"hangtime"}},{"type":"Feature","geometry":{"type":"Point","coordinates":[25.0476,60.204509]},"properties":{"board":"kilter","name":"Boulderkeskus Herttoniemi","src":"hangtime"}},{"type":"Feature","geometry":{"type":"Point","coordinates":[7.79521,47.99075]},"properties":{"board":"kilter","name":"Boulderkitchen Freiburg","src":"hangtime"}},{"type":"Feature","geometry":{"type":"Point","coordinates":[12.92085,50.81768]},"properties":{"board":"kilter","name":"Boulderlounge Chemnitz","src":"hangtime"}},{"type":"Feature","geometry":{"type":"Point","coordinates":[8.4528,47.39912]},"properties":{"board":"kilter","name":"Boulderlounge Schlieren","src":"hangtime"}},{"type":"Feature","geometry":{"type":"Point","coordinates":[9.33957,47.41511]},"properties":{"board":"kilter","name":"Boulderlounge St Gallen","src":"hangtime"}},{"type":"Feature","geometry":{"type":"Point","coordinates":[14.838631194315278,48.66507970052178]},"properties":{"board":"kilter","name":"Boulderoase St. Martin","src":"hangtime"}},{"type":"Feature","geometry":{"type":"Point","coordinates":[16.94313,52.3771]},"properties":{"board":"kilter","name":"Boulderownia Groto Poznań","src":"hangtime"}},{"type":"Feature","geometry":{"type":"Point","coordinates":[6.90509,50.94495]},"properties":{"board":"kilter","name":"Boulderplanet","src":"hangtime"}},{"type":"Feature","geometry":{"type":"Point","coordinates":[9.97521,57.03035]},"properties":{"board":"kilter","name":"Boulders Aalborg","src":"hangtime"}},{"type":"Feature","geometry":{"type":"Point","coordinates":[10.16688,56.15082]},"properties":{"board":"kilter","name":"Boulders Aarhus Aaby","src":"hangtime"}},{"type":"Feature","geometry":{"type":"Point","coordinates":[10.15457,56.11068]},"properties":{"board":"kilter","name":"Boulders Aarhus Sud","src":"hangtime"}},{"type":"Feature","geometry":{"type":"Point","coordinates":[12.63058,55.61953]},"properties":{"board":"kilter","name":"Boulders Amager","src":"hangtime"}},{"type":"Feature","geometry":{"type":"Point","coordinates":[-113.50434,53.548]},"properties":{"board":"kilter","name":"Boulders Climbing","src":"hangtime"}},{"type":"Feature","geometry":{"type":"Point","coordinates":[-89.38326,43.07327]},"properties":{"board":"kilter","name":"Boulders Climbing Gym Downtown","src":"hangtime"}},{"type":"Feature","geometry":{"type":"Point","coordinates":[12.48416,55.6271]},"properties":{"board":"kilter","name":"Boulders Hvidovre","src":"hangtime"}},{"type":"Feature","geometry":{"type":"Point","coordinates":[12.51526,55.66153]},"properties":{"board":"kilter","name":"Boulders Valby","src":"hangtime"}},{"type":"Feature","geometry":{"type":"Point","coordinates":[12.4909,55.68776]},"properties":{"board":"kilter","name":"Boulders Vanløse","src":"hangtime"}},{"type":"Feature","geometry":{"type":"Point","coordinates":[-94.1671,36.06755]},"properties":{"board":"kilter","name":"Boulders and Brews","src":"hangtime"}},{"type":"Feature","geometry":{"type":"Point","coordinates":[6.87172,52.22366]},"properties":{"board":"kilter","name":"Boulderstation Enschede","src":"hangtime"}},{"type":"Feature","geometry":{"type":"Point","coordinates":[7.37769,51.49471]},"properties":{"board":"kilter","name":"Boulderwelt Dortmund","src":"hangtime"}},{"type":"Feature","geometry":{"type":"Point","coordinates":[8.68487,50.16409]},"properties":{"board":"kilter","name":"Boulderwelt Frankfurt","src":"hangtime"}},{"type":"Feature","geometry":{"type":"Point","coordinates":[10.02095,53.55395]},"properties":{"board":"kilter","name":"Boulderwelt Hamburg","src":"hangtime"}},{"type":"Feature","geometry":{"type":"Point","coordinates":[8.39506,49.01045]},"properties":{"board":"kilter","name":"Boulderwelt Karlsruhe","src":"hangtime"}},{"type":"Feature","geometry":{"type":"Point","coordinates":[11.6637,48.04129]},"properties":{"board":"kilter","name":"Boulderwelt München Süd","src":"hangtime"}},{"type":"Feature","geometry":{"type":"Point","coordinates":[12.12876,49.0323]},"properties":{"board":"kilter","name":"Boulderwelt Regensburg","src":"hangtime"}},{"type":"Feature","geometry":{"type":"Point","coordinates":[-79.54964,43.61934]},"properties":{"board":"kilter","name":"Boulderz Climbing Center","src":"hangtime"}},{"type":"Feature","geometry":{"type":"Point","coordinates":[4.42198,51.23889]},"properties":{"board":"kilter","name":"Boulderzaal The Island","src":"hangtime"}},{"type":"Feature","geometry":{"type":"Point","coordinates":[4.9367702,50.80696993884857]},"properties":{"board":"kilter","name":"Boulderzaal Topo","src":"hangtime"}},{"type":"Feature","geometry":{"type":"Point","coordinates":[11.09202,49.24812]},"properties":{"board":"kilter","name":"Box-X Arena","src":"hangtime"}},{"type":"Feature","geometry":{"type":"Point","coordinates":[6.63972697236616,44.899596273874344]},"properties":{"board":"kilter","name":"Briançon escalade","src":"hangtime"}},{"type":"Feature","geometry":{"type":"Point","coordinates":[-121.51707,45.7085]},"properties":{"board":"kilter","name":"Brimstone Boulders","src":"hangtime"}},{"type":"Feature","geometry":{"type":"Point","coordinates":[-73.98392,40.67975]},"properties":{"board":"kilter","name":"Brooklyn Bouldering Project","src":"hangtime"}},{"type":"Feature","geometry":{"type":"Point","coordinates":[-87.65213,41.88035]},"properties":{"board":"kilter","name":"Brooklyn Boulders Chicago West Loop","src":"hangtime"}},{"type":"Feature","geometry":{"type":"Point","coordinates":[-4.24007,55.86758]},"properties":{"board":"kilter","name":"Brushworks Climbing","src":"hangtime"}},{"type":"Feature","geometry":{"type":"Point","coordinates":[7.71364,45.07759]},"properties":{"board":"kilter","name":"Bside Climbing Park","src":"hangtime"}},{"type":"Feature","geometry":{"type":"Point","coordinates":[-0.90338,41.65539]},"properties":{"board":"kilter","name":"Bulderland Zaragoza","src":"hangtime"}},{"type":"Feature","geometry":{"type":"Point","coordinates":[8.56001,60.62634]},"properties":{"board":"kilter","name":"Buldretanken","src":"hangtime"}},{"type":"Feature","geometry":{"type":"Point","coordinates":[18.92236,69.66855]},"properties":{"board":"kilter","name":"Buldreterminalen AS","src":"hangtime"}},{"type":"Feature","geometry":{"type":"Point","coordinates":[-79.01702,-2.90054]},"properties":{"board":"kilter","name":"C-TR3S Climbing + Fitness","src":"hangtime"}},{"type":"Feature","geometry":{"type":"Point","coordinates":[120.19591,30.29286]},"properties":{"board":"kilter","name":"CLIFFS 攀岩馆","src":"hangtime"}},{"type":"Feature","geometry":{"type":"Point","coordinates":[-73.56297,45.50977]},"properties":{"board":"kilter","name":"Café Bloc","src":"hangtime"}},{"type":"Feature","geometry":{"type":"Point","coordinates":[-114.06805,50.99044]},"properties":{"board":"kilter","name":"Calgary Climbing Center Chinook","src":"hangtime"}},{"type":"Feature","geometry":{"type":"Point","coordinates":[-114.03547,51.13652]},"properties":{"board":"kilter","name":"Calgary Climbing Center Hanger","src":"hangtime"}},{"type":"Feature","geometry":{"type":"Point","coordinates":[-0.35736,39.46582]},"properties":{"board":"kilter","name":"Camaleón Boulder","src":"hangtime"}},{"type":"Feature","geometry":{"type":"Point","coordinates":[101.67444,3.12019]},"properties":{"board":"kilter","name":"Camp5 Eco City","src":"hangtime"}},{"type":"Feature","geometry":{"type":"Point","coordinates":[-79.4472,43.65926]},"properties":{"board":"kilter","name":"Campbell Supershed","src":"hangtime"}},{"type":"Feature","geometry":{"type":"Point","coordinates":[-3.70368,42.37675]},"properties":{"board":"kilter","name":"Campo Base Escalada","src":"hangtime"}},{"type":"Feature","geometry":{"type":"Point","coordinates":[6.1302,50.78416]},"properties":{"board":"kilter","name":"Campus Boulderhalle","src":"hangtime"}},{"type":"Feature","geometry":{"type":"Point","coordinates":[-72.57676,46.34282]},"properties":{"board":"kilter","name":"Campus Escalade Trois-Riviéres","src":"hangtime"}},{"type":"Feature","geometry":{"type":"Point","coordinates":[-71.95261,46.05766]},"properties":{"board":"kilter","name":"Campus Escalade Victoriaville","src":"hangtime"}},{"type":"Feature","geometry":{"type":"Point","coordinates":[1.22935,41.11489]},"properties":{"board":"kilter","name":"Can Rock","src":"hangtime"}},{"type":"Feature","geometry":{"type":"Point","coordinates":[2.28049,41.99789]},"properties":{"board":"kilter","name":"Can Tiba-li","src":"hangtime"}},{"type":"Feature","geometry":{"type":"Point","coordinates":[-115.35826,51.09458]},"properties":{"board":"kilter","name":"Canmore Climbing Gym","src":"hangtime"}},{"type":"Feature","geometry":{"type":"Point","coordinates":[-73.46974,45.40841]},"properties":{"board":"kilter","name":"Canyon Escalade","src":"hangtime"}},{"type":"Feature","geometry":{"type":"Point","coordinates":[-81.05605,33.9856]},"properties":{"board":"kilter","name":"Capital Climbing Cayce","src":"hangtime"}},{"type":"Feature","geometry":{"type":"Point","coordinates":[-2.80001,47.68163]},"properties":{"board":"kilter","name":"Capt'N Hablock","src":"hangtime"}},{"type":"Feature","geometry":{"type":"Point","coordinates":[12.53534,48.01948]},"properties":{"board":"kilter","name":"Captain Hook Boulder","src":"hangtime"}},{"type":"Feature","geometry":{"type":"Point","coordinates":[-70.94795,41.64237]},"properties":{"board":"kilter","name":"Carabiner's Climbing and Fitness","src":"hangtime"}},{"type":"Feature","geometry":{"type":"Point","coordinates":[8.56031,51.93543]},"properties":{"board":"kilter","name":"Center of Gravity Boulderhalle","src":"hangtime"}},{"type":"Feature","geometry":{"type":"Point","coordinates":[-81.84924,26.52731]},"properties":{"board":"kilter","name":"Central Rock Ft. Myers","src":"hangtime"}},{"type":"Feature","geometry":{"type":"Point","coordinates":[-78.86807,42.87012]},"properties":{"board":"kilter","name":"Central Rock Gym Buffalo","src":"hangtime"}},{"type":"Feature","geometry":{"type":"Point","coordinates":[-71.15172,42.39436]},"properties":{"board":"kilter","name":"Central Rock Gym Cambridge","src":"hangtime"}},{"type":"Feature","geometry":{"type":"Point","coordinates":[-74.00418,40.75113]},"properties":{"board":"kilter","name":"Central Rock Gym Chelsea","src":"hangtime"}},{"type":"Feature","geometry":{"type":"Point","coordinates":[-71.39761,42.31872]},"properties":{"board":"kilter","name":"Central Rock Gym Framingham","src":"hangtime"}},{"type":"Feature","geometry":{"type":"Point","coordinates":[-72.58445,42.34234]},"properties":{"board":"kilter","name":"Central Rock Gym Hadley","src":"hangtime"}},{"type":"Feature","geometry":{"type":"Point","coordinates":[-71.12024,42.37318]},"properties":{"board":"kilter","name":"Central Rock Gym Harvard Square","src":"hangtime"}},{"type":"Feature","geometry":{"type":"Point","coordinates":[-81.40446,28.44892]},"properties":{"board":"kilter","name":"Central Rock Gym Orlando","src":"hangtime"}},{"type":"Feature","geometry":{"type":"Point","coordinates":[-71.06673,42.19973]},"properties":{"board":"kilter","name":"Central Rock Gym Randolph","src":"hangtime"}},{"type":"Feature","geometry":{"type":"Point","coordinates":[-77.59443,43.14998]},"properties":{"board":"kilter","name":"Central Rock Gym Rochester","src":"hangtime"}},{"type":"Feature","geometry":{"type":"Point","coordinates":[-82.52063,27.89432]},"properties":{"board":"kilter","name":"Central Rock Gym Tampa","src":"hangtime"}},{"type":"Feature","geometry":{"type":"Point","coordinates":[-73.68603,42.74058]},"properties":{"board":"kilter","name":"Central Rock Gym Troy","src":"hangtime"}},{"type":"Feature","geometry":{"type":"Point","coordinates":[-72.71989,41.72522]},"properties":{"board":"kilter","name":"Central Rock Gym West Hartford","src":"hangtime"}},{"type":"Feature","geometry":{"type":"Point","coordinates":[-71.7972,42.29745]},"properties":{"board":"kilter","name":"Central Rock Gym Worcester","src":"hangtime"}},{"type":"Feature","geometry":{"type":"Point","coordinates":[2.81161,41.96756]},"properties":{"board":"kilter","name":"Centre d'escalada Cal Mico","src":"hangtime"}},{"type":"Feature","geometry":{"type":"Point","coordinates":[-16.30612,28.4752]},"properties":{"board":"kilter","name":"Centro Escalada Tenerife","src":"hangtime"}},{"type":"Feature","geometry":{"type":"Point","coordinates":[128.5275,35.82364]},"properties":{"board":"kilter","name":"Chalk Up Climbing Center Wolseong 초크업 클라이밍","src":"hangtime"}},{"type":"Feature","geometry":{"type":"Point","coordinates":[0.53477,51.40267]},"properties":{"board":"kilter","name":"Chimera Climbing Chatham","src":"hangtime"}},{"type":"Feature","geometry":{"type":"Point","coordinates":[6.81915,50.90932]},"properties":{"board":"kilter","name":"Chimpanzodrome Kletter und Boulderhalle","src":"hangtime"}},{"type":"Feature","geometry":{"type":"Point","coordinates":[-122.76827,47.07235]},"properties":{"board":"kilter","name":"Cirque Climbing","src":"hangtime"}},{"type":"Feature","geometry":{"type":"Point","coordinates":[-1.53372,53.78606]},"properties":{"board":"kilter","name":"City Bloc","src":"hangtime"}},{"type":"Feature","geometry":{"type":"Point","coordinates":[8.297610741818875,47.03089684368702]},"properties":{"board":"kilter","name":"City Boulder AG","src":"hangtime"}},{"type":"Feature","geometry":{"type":"Point","coordinates":[-0.07473,51.51512]},"properties":{"board":"kilter","name":"City Bouldering Aldgate","src":"hangtime"}},{"type":"Feature","geometry":{"type":"Point","coordinates":[-0.00358,51.53705]},"properties":{"board":"kilter","name":"City Bouldering Stratford","src":"hangtime"}},{"type":"Feature","geometry":{"type":"Point","coordinates":[18.48122,-33.89869]},"properties":{"board":"kilter","name":"CityROCK Cape Town","src":"hangtime"}},{"type":"Feature","geometry":{"type":"Point","coordinates":[27.97596,-26.10627]},"properties":{"board":"kilter","name":"CityROCK JHB","src":"hangtime"}},{"type":"Feature","geometry":{"type":"Point","coordinates":[28.25072,-25.85158]},"properties":{"board":"kilter","name":"CityROCK Pretoria","src":"hangtime"}},{"type":"Feature","geometry":{"type":"Point","coordinates":[-118.35149,33.84909]},"properties":{"board":"kilter","name":"Class 5","src":"hangtime"}},{"type":"Feature","geometry":{"type":"Point","coordinates":[26.12165,44.38974]},"properties":{"board":"kilter","name":"Climb Again Centrul","src":"hangtime"}},{"type":"Feature","geometry":{"type":"Point","coordinates":[27.62568,47.12658]},"properties":{"board":"kilter","name":"Climb Again Iasi","src":"hangtime"}},{"type":"Feature","geometry":{"type":"Point","coordinates":[2.18778,48.95432]},"properties":{"board":"kilter","name":"Climb Arena","src":"hangtime"}},{"type":"Feature","geometry":{"type":"Point","coordinates":[-94.21992,36.35673]},"properties":{"board":"kilter","name":"Climb Bentonville","src":"hangtime"}},{"type":"Feature","geometry":{"type":"Point","coordinates":[103.8502,1.29201]},"properties":{"board":"kilter","name":"Climb Central Funan","src":"hangtime"}},{"type":"Feature","geometry":{"type":"Point","coordinates":[103.74727,1.38877]},"properties":{"board":"kilter","name":"Climb Central SAFRA Choa Chu Kang","src":"hangtime"}},{"type":"Feature","geometry":{"type":"Point","coordinates":[-84.54462,39.16127]},"properties":{"board":"kilter","name":"Climb Cincy","src":"hangtime"}},{"type":"Feature","geometry":{"type":"Point","coordinates":[-81.68733,41.48187]},"properties":{"board":"kilter","name":"Climb Cleveland","src":"hangtime"}},{"type":"Feature","geometry":{"type":"Point","coordinates":[151.07911,-34.02845]},"properties":{"board":"kilter","name":"Climb Fit Kirrawee","src":"hangtime"}},{"type":"Feature","geometry":{"type":"Point","coordinates":[151.13315,-33.78746]},"properties":{"board":"kilter","name":"Climb Fit Macquarie","src":"hangtime"}},{"type":"Feature","geometry":{"type":"Point","coordinates":[-85.58329,42.29166]},"properties":{"board":"kilter","name":"Climb Kalamazoo","src":"hangtime"}},{"type":"Feature","geometry":{"type":"Point","coordinates":[-86.758,36.1092]},"properties":{"board":"kilter","name":"Climb Kraft","src":"hangtime"}},{"type":"Feature","geometry":{"type":"Point","coordinates":[-95.23664,38.97134]},"properties":{"board":"kilter","name":"Climb Lawrence","src":"hangtime"}},{"type":"Feature","geometry":{"type":"Point","coordinates":[33.77632,-13.93661]},"properties":{"board":"kilter","name":"Climb Malawi","src":"hangtime"}},{"type":"Feature","geometry":{"type":"Point","coordinates":[-109.468447,38.493873]},"properties":{"board":"kilter","name":"Climb Moab Gym","src":"hangtime"}},{"type":"Feature","geometry":{"type":"Point","coordinates":[-122.31272,47.32538]},"properties":{"board":"kilter","name":"Climb Nora","src":"hangtime"}},{"type":"Feature","geometry":{"type":"Point","coordinates":[-87.66858,41.56062]},"properties":{"board":"kilter","name":"Climb On","src":"hangtime"}},{"type":"Feature","geometry":{"type":"Point","coordinates":[150.90848,-33.76538]},"properties":{"board":"kilter","name":"Climb Oz","src":"hangtime"}},{"type":"Feature","geometry":{"type":"Point","coordinates":[4.95816,43.52859]},"properties":{"board":"kilter","name":"Climb Up Istres","src":"hangtime"}},{"type":"Feature","geometry":{"type":"Point","coordinates":[4.36785,43.83249]},"properties":{"board":"kilter","name":"Climb Up Nîmes","src":"hangtime"}},{"type":"Feature","geometry":{"type":"Point","coordinates":[144.81001,-37.85835]},"properties":{"board":"kilter","name":"Climb West Melbourne","src":"hangtime"}},{"type":"Feature","geometry":{"type":"Point","coordinates":[-135.10464625767037,60.77956528162924]},"properties":{"board":"kilter","name":"Climb Yukon Collective","src":"hangtime"}},{"type":"Feature","geometry":{"type":"Point","coordinates":[35.84339,31.88255]},"properties":{"board":"kilter","name":"Climbat Amman","src":"hangtime"}},{"type":"Feature","geometry":{"type":"Point","coordinates":[-3.84857,40.33956]},"properties":{"board":"kilter","name":"Climbat X-Madrid","src":"hangtime"}},{"type":"Feature","geometry":{"type":"Point","coordinates":[-79.76332,43.38284]},"properties":{"board":"kilter","name":"Climbers Rock","src":"hangtime"}},{"type":"Feature","geometry":{"type":"Point","coordinates":[2.37059,48.84782]},"properties":{"board":"kilter","name":"Climbing District Bastille","src":"hangtime"}},{"type":"Feature","geometry":{"type":"Point","coordinates":[138.33728,36.73843]},"properties":{"board":"kilter","name":"Climbing House KN","src":"hangtime"}},{"type":"Feature","geometry":{"type":"Point","coordinates":[-2.91813,53.2939]},"properties":{"board":"kilter","name":"Climbing Hut Ellesmere Port","src":"hangtime"}},{"type":"Feature","geometry":{"type":"Point","coordinates":[7.31516,47.75067]},"properties":{"board":"kilter","name":"Climbing Mulhouse Center","src":"hangtime"}},{"type":"Feature","geometry":{"type":"Point","coordinates":[-83.88968,35.94278]},"properties":{"board":"kilter","name":"Climbing Roots","src":"hangtime"}},{"type":"Feature","geometry":{"type":"Point","coordinates":[126.75902,37.68945]},"properties":{"board":"kilter","name":"Climbing Up the Wall Ilsan 업더월클라이밍 일산","src":"hangtime"}},{"type":"Feature","geometry":{"type":"Point","coordinates":[12.30335,46.27371]},"properties":{"board":"kilter","name":"Climbing Zoo","src":"hangtime"}},{"type":"Feature","geometry":{"type":"Point","coordinates":[-0.51639,38.33439]},"properties":{"board":"kilter","name":"Climbpro Center","src":"hangtime"}},{"type":"Feature","geometry":{"type":"Point","coordinates":[-1.6794206268401939,42.84032287502238]},"properties":{"board":"kilter","name":"Club Deportivo la Gotera","src":"hangtime"}},{"type":"Feature","geometry":{"type":"Point","coordinates":[-92.33687,38.91182]},"properties":{"board":"kilter","name":"CoMo Rocks","src":"hangtime"}},{"type":"Feature","geometry":{"type":"Point","coordinates":[-79.9463228,32.7988172]},"properties":{"board":"kilter","name":"Coastal Climbing Gym","src":"hangtime"}},{"type":"Feature","geometry":{"type":"Point","coordinates":[2.90609,50.40532]},"properties":{"board":"kilter","name":"Complex Maurice Thorez","src":"hangtime"}},{"type":"Feature","geometry":{"type":"Point","coordinates":[-73.0467601,-36.8107431]},"properties":{"board":"kilter","name":"ConceClimb Boulder & Fitness","src":"hangtime"}},{"type":"Feature","geometry":{"type":"Point","coordinates":[-80.2338,43.17698]},"properties":{"board":"kilter","name":"Conquer Climbing Centre","src":"hangtime"}},{"type":"Feature","geometry":{"type":"Point","coordinates":[-69.79634,47.58789]},"properties":{"board":"kilter","name":"Coop St-Germain","src":"hangtime"}},{"type":"Feature","geometry":{"type":"Point","coordinates":[6.15194,49.62358]},"properties":{"board":"kilter","name":"Coque Luxembourg","src":"hangtime"}},{"type":"Feature","geometry":{"type":"Point","coordinates":[153.3533,-28.03656]},"properties":{"board":"kilter","name":"Core Climbing","src":"hangtime"}},{"type":"Feature","geometry":{"type":"Point","coordinates":[-75.6256,45.40566]},"properties":{"board":"kilter","name":"Coyote Rock Gym","src":"hangtime"}},{"type":"Feature","geometry":{"type":"Point","coordinates":[76.8762,43.2409]},"properties":{"board":"kilter","name":"Cozy Rock","src":"hangtime"}},{"type":"Feature","geometry":{"type":"Point","coordinates":[153.0687,-27.5624]},"properties":{"board":"kilter","name":"Crank Indoor Climbing","src":"hangtime"}},{"type":"Feature","geometry":{"type":"Point","coordinates":[8.64456,49.41254]},"properties":{"board":"kilter","name":"Crimp Boulderhalle","src":"hangtime"}},{"type":"Feature","geometry":{"type":"Point","coordinates":[-80.41082,37.15166]},"properties":{"board":"kilter","name":"Crimper's Climbing","src":"hangtime"}},{"type":"Feature","geometry":{"type":"Point","coordinates":[15.420550728836115,50.780882755796554]},"properties":{"board":"kilter","name":"Crux 24","src":"hangtime"}},{"type":"Feature","geometry":{"type":"Point","coordinates":[5.160665662398782,50.943136943805015]},"properties":{"board":"kilter","name":"Crux Bouldergym","src":"hangtime"}},{"type":"Feature","geometry":{"type":"Point","coordinates":[-9.33071,38.72189]},"properties":{"board":"kilter","name":"Crux Climbing Center","src":"hangtime"}},{"type":"Feature","geometry":{"type":"Point","coordinates":[-97.71691,30.32642]},"properties":{"board":"kilter","name":"Crux Climbing Center Central","src":"hangtime"}},{"type":"Feature","geometry":{"type":"Point","coordinates":[-97.79111214027573,30.181421802025056]},"properties":{"board":"kilter","name":"Crux Climbing Center South","src":"hangtime"}},{"type":"Feature","geometry":{"type":"Point","coordinates":[-97.61623,30.47847]},"properties":{"board":"kilter","name":"Crux Climbing Pflugerville","src":"hangtime"}},{"type":"Feature","geometry":{"type":"Point","coordinates":[6.90367,52.22304]},"properties":{"board":"kilter","name":"Cube Bouldergym","src":"hangtime"}},{"type":"Feature","geometry":{"type":"Point","coordinates":[-82.55935,35.59211]},"properties":{"board":"kilter","name":"Cultivate Climbing - The Bunker","src":"hangtime"}},{"type":"Feature","geometry":{"type":"Point","coordinates":[153.30187,-27.85168]},"properties":{"board":"kilter","name":"Cutloose Indoor Climbing","src":"hangtime"}},{"type":"Feature","geometry":{"type":"Point","coordinates":[8.5717,52.01464]},"properties":{"board":"kilter","name":"DAV Alpinzentrum Bielefeld","src":"hangtime"}},{"type":"Feature","geometry":{"type":"Point","coordinates":[10.28977,47.72]},"properties":{"board":"kilter","name":"DAV Alpinzentrum Swoboda Alpin","src":"hangtime"}},{"type":"Feature","geometry":{"type":"Point","coordinates":[11.0916,47.48262]},"properties":{"board":"kilter","name":"DAV Boulderhalle Garmisch-Partenkirhen","src":"hangtime"}},{"type":"Feature","geometry":{"type":"Point","coordinates":[12.82114,47.84818]},"properties":{"board":"kilter","name":"DAV Boulderhalle Teisendorf","src":"hangtime"}},{"type":"Feature","geometry":{"type":"Point","coordinates":[12.23375,48.06344]},"properties":{"board":"kilter","name":"DAV Boulderhalle Wasserburg","src":"hangtime"}},{"type":"Feature","geometry":{"type":"Point","coordinates":[11.03079,49.59284]},"properties":{"board":"kilter","name":"DAV Boulderzentrum Erlangen","src":"hangtime"}},{"type":"Feature","geometry":{"type":"Point","coordinates":[10.02661,48.82413]},"properties":{"board":"kilter","name":"DAV Boulderzentrum Ostalb","src":"hangtime"}},{"type":"Feature","geometry":{"type":"Point","coordinates":[11.59888321140746,49.93608301069035]},"properties":{"board":"kilter","name":"DAV Climbing Center Bayreuth","src":"hangtime"}},{"type":"Feature","geometry":{"type":"Point","coordinates":[11.20295,49.37692]},"properties":{"board":"kilter","name":"DAV Feucht","src":"hangtime"}},{"type":"Feature","geometry":{"type":"Point","coordinates":[11.57895,47.75974]},"properties":{"board":"kilter","name":"DAV Kletter & Boulderzentrum Bad Tölz","src":"hangtime"}},{"type":"Feature","geometry":{"type":"Point","coordinates":[11.54568,48.107]},"properties":{"board":"kilter","name":"DAV Kletter & Boulderzentrum München-Süd","src":"hangtime"}},{"type":"Feature","geometry":{"type":"Point","coordinates":[11.30113,48.10135]},"properties":{"board":"kilter","name":"DAV Kletter & Boulderzentrum München-West","src":"hangtime"}},{"type":"Feature","geometry":{"type":"Point","coordinates":[12.18221,48.54807]},"properties":{"board":"kilter","name":"DAV Kletter Boulder Zentrum Landshut","src":"hangtime"}},{"type":"Feature","geometry":{"type":"Point","coordinates":[11.61815,48.20695]},"properties":{"board":"kilter","name":"DAV Kletter und Boulderzentrum München-Nord","src":"hangtime"}},{"type":"Feature","geometry":{"type":"Point","coordinates":[9.16337,48.83486]},"properties":{"board":"kilter","name":"DAV Kletter und Boulderzentrum Schwaben - Rockerei","src":"hangtime"}},{"type":"Feature","geometry":{"type":"Point","coordinates":[7.75598,49.42855]},"properties":{"board":"kilter","name":"DAV Kletterzentrum Barbarosshalle","src":"hangtime"}},{"type":"Feature","geometry":{"type":"Point","coordinates":[11.5988,49.93592]},"properties":{"board":"kilter","name":"DAV Kletterzentrum Bayreuth","src":"hangtime"}},{"type":"Feature","geometry":{"type":"Point","coordinates":[7.81845,47.98119]},"properties":{"board":"kilter","name":"DAV Kletterzentrum Freiburg","src":"hangtime"}},{"type":"Feature","geometry":{"type":"Point","coordinates":[8.004782526563105,50.86894011939988]},"properties":{"board":"kilter","name":"DAV Kletterzentrum Siegerland","src":"hangtime"}},{"type":"Feature","geometry":{"type":"Point","coordinates":[7.23554,51.26866]},"properties":{"board":"kilter","name":"DAV Kletterzentrum Wupperwände","src":"hangtime"}},{"type":"Feature","geometry":{"type":"Point","coordinates":[11.01591,49.33552]},"properties":{"board":"kilter","name":"DAV Schwabach","src":"hangtime"}},{"type":"Feature","geometry":{"type":"Point","coordinates":[-77.00432,38.91199]},"properties":{"board":"kilter","name":"DC Boudering Project","src":"hangtime"}},{"type":"Feature","geometry":{"type":"Point","coordinates":[13.639153740355331,45.92772330549454]},"properties":{"board":"kilter","name":"DES Climbing Gym","src":"hangtime"}},{"type":"Feature","geometry":{"type":"Point","coordinates":[-83.04073,42.35335]},"properties":{"board":"kilter","name":"DYNO Detroit","src":"hangtime"}},{"type":"Feature","geometry":{"type":"Point","coordinates":[-96.837839,32.800198]},"properties":{"board":"kilter","name":"Dallas Bouldering Project","src":"hangtime"}},{"type":"Feature","geometry":{"type":"Point","coordinates":[16.37618,48.23312]},"properties":{"board":"kilter","name":"Das Flash","src":"hangtime"}},{"type":"Feature","geometry":{"type":"Point","coordinates":[10.99732,49.57437]},"properties":{"board":"kilter","name":"Der Steinbock Erlangen","src":"hangtime"}},{"type":"Feature","geometry":{"type":"Point","coordinates":[9.14373,47.6751382]},"properties":{"board":"kilter","name":"Der Steinbock Konstanz","src":"hangtime"}},{"type":"Feature","geometry":{"type":"Point","coordinates":[14.2749,48.29891]},"properties":{"board":"kilter","name":"Der Steinbock Linz","src":"hangtime"}},{"type":"Feature","geometry":{"type":"Point","coordinates":[11.02867,49.4515]},"properties":{"board":"kilter","name":"Der Steinbock Nürnberg","src":"hangtime"}},{"type":"Feature","geometry":{"type":"Point","coordinates":[-122.05327,37.96487]},"properties":{"board":"kilter","name":"Diablo Rock Gym","src":"hangtime"}},{"type":"Feature","geometry":{"type":"Point","coordinates":[10.85614,48.08027]},"properties":{"board":"kilter","name":"Die Kletterei","src":"hangtime"}},{"type":"Feature","geometry":{"type":"Point","coordinates":[9.30892,47.40872]},"properties":{"board":"kilter","name":"Die Kletterhalle St. Gallen AG","src":"hangtime"}},{"type":"Feature","geometry":{"type":"Point","coordinates":[16.315214120473954,48.196208449388536]},"properties":{"board":"kilter","name":"Die Knäpperei","src":"hangtime"}},{"type":"Feature","geometry":{"type":"Point","coordinates":[-105.50807,39.96262]},"properties":{"board":"kilter","name":"Dino Moves Gym","src":"hangtime"}},{"type":"Feature","geometry":{"type":"Point","coordinates":[-122.38767,37.7567]},"properties":{"board":"kilter","name":"Dogpatch Boulders","src":"hangtime"}},{"type":"Feature","geometry":{"type":"Point","coordinates":[-8.82308,39.5993]},"properties":{"board":"kilter","name":"Dolinas Climbing Center","src":"hangtime"}},{"type":"Feature","geometry":{"type":"Point","coordinates":[-81.30341,29.02089]},"properties":{"board":"kilter","name":"Dyno Climb","src":"hangtime"}},{"type":"Feature","geometry":{"type":"Point","coordinates":[8.73259,50.13717]},"properties":{"board":"kilter","name":"Dynochrom Boulderhalle","src":"hangtime"}},{"type":"Feature","geometry":{"type":"Point","coordinates":[-71.27568,46.82717]},"properties":{"board":"kilter","name":"DÈLIRE Escalade Pierre-Bertrand","src":"hangtime"}},{"type":"Feature","geometry":{"type":"Point","coordinates":[-71.1795,46.79569]},"properties":{"board":"kilter","name":"DÉLIRE Escalade Lévis","src":"hangtime"}},{"type":"Feature","geometry":{"type":"Point","coordinates":[-71.3259,46.80062]},"properties":{"board":"kilter","name":"DÉLIRE Escalade Sainte-Foy","src":"hangtime"}},{"type":"Feature","geometry":{"type":"Point","coordinates":[139.73564,35.98874]},"properties":{"board":"kilter","name":"Dボルダリング春日部 D Bouldering Kasukabe","src":"hangtime"}},{"type":"Feature","geometry":{"type":"Point","coordinates":[139.74775,35.64676]},"properties":{"board":"kilter","name":"Dボルダリング田町 D Bouldering Tamachi","src":"hangtime"}},{"type":"Feature","geometry":{"type":"Point","coordinates":[139.41101,35.696]},"properties":{"board":"kilter","name":"Dボルダリング立川 D Bouldering Tachikawa","src":"hangtime"}},{"type":"Feature","geometry":{"type":"Point","coordinates":[7.5738,47.57471]},"properties":{"board":"kilter","name":"ELYS Boulderloft","src":"hangtime"}},{"type":"Feature","geometry":{"type":"Point","coordinates":[6.85405,45.91751]},"properties":{"board":"kilter","name":"EMHM","src":"hangtime"}},{"type":"Feature","geometry":{"type":"Point","coordinates":[-106.82289,39.66082]},"properties":{"board":"kilter","name":"Eagle Climbing + Fitness","src":"hangtime"}},{"type":"Feature","geometry":{"type":"Point","coordinates":[-3.1498773637450537,55.883763345387]},"properties":{"board":"kilter","name":"Eden Rock Edinburgh","src":"hangtime"}},{"type":"Feature","geometry":{"type":"Point","coordinates":[-1.56064,54.98585]},"properties":{"board":"kilter","name":"Eden Rock Newcastle","src":"hangtime"}},{"type":"Feature","geometry":{"type":"Point","coordinates":[-122.15469,47.6261]},"properties":{"board":"kilter","name":"Edgeworks Bel-Red Boulders","src":"hangtime"}},{"type":"Feature","geometry":{"type":"Point","coordinates":[-122.12883,47.61994]},"properties":{"board":"kilter","name":"Edgeworks Bellevue","src":"hangtime"}},{"type":"Feature","geometry":{"type":"Point","coordinates":[-122.39509,47.668701]},"properties":{"board":"kilter","name":"Edgeworks Seattle","src":"hangtime"}},{"type":"Feature","geometry":{"type":"Point","coordinates":[-122.520126,47.257191]},"properties":{"board":"kilter","name":"Edgeworks Tacoma","src":"hangtime"}},{"type":"Feature","geometry":{"type":"Point","coordinates":[-2.0969699508931994,43.109892891666874]},"properties":{"board":"kilter","name":"Egurre Errokodromoa","src":"hangtime"}},{"type":"Feature","geometry":{"type":"Point","coordinates":[7.55315,50.3698]},"properties":{"board":"kilter","name":"Eifelblock Metternich","src":"hangtime"}},{"type":"Feature","geometry":{"type":"Point","coordinates":[6.7432,51.43236]},"properties":{"board":"kilter","name":"Einstein Boulderhalle Duisburg","src":"hangtime"}},{"type":"Feature","geometry":{"type":"Point","coordinates":[6.82183,51.21367]},"properties":{"board":"kilter","name":"Einstein Boulderhalle Düsseldorf","src":"hangtime"}},{"type":"Feature","geometry":{"type":"Point","coordinates":[6.90254,50.94496]},"properties":{"board":"kilter","name":"Einstein Boulderhalle Köln","src":"hangtime"}},{"type":"Feature","geometry":{"type":"Point","coordinates":[11.52284,48.14073]},"properties":{"board":"kilter","name":"Einstein Boulderhalle München","src":"hangtime"}},{"type":"Feature","geometry":{"type":"Point","coordinates":[10.02949,48.38998]},"properties":{"board":"kilter","name":"Einstein Boulderhalle Neu Ulm","src":"hangtime"}},{"type":"Feature","geometry":{"type":"Point","coordinates":[7.20766,51.5826]},"properties":{"board":"kilter","name":"Einstein Boulderhalle Recklinghausen","src":"hangtime"}},{"type":"Feature","geometry":{"type":"Point","coordinates":[9.96282,48.40155]},"properties":{"board":"kilter","name":"Einstein Boulderhalle Ulm","src":"hangtime"}},{"type":"Feature","geometry":{"type":"Point","coordinates":[-1.6413989,47.2238304]},"properties":{"board":"kilter","name":"El Cap","src":"hangtime"}},{"type":"Feature","geometry":{"type":"Point","coordinates":[-78.44734262883618,-0.21926596177731264]},"properties":{"board":"kilter","name":"El Muro","src":"hangtime"}},{"type":"Feature","geometry":{"type":"Point","coordinates":[-75.56857,6.23513]},"properties":{"board":"kilter","name":"El Muro","src":"hangtime"}},{"type":"Feature","geometry":{"type":"Point","coordinates":[-3.93344,38.97546]},"properties":{"board":"kilter","name":"El Plafón","src":"hangtime"}},{"type":"Feature","geometry":{"type":"Point","coordinates":[-5.83337,43.36508]},"properties":{"board":"kilter","name":"El Roko Centro de Escalada","src":"hangtime"}},{"type":"Feature","geometry":{"type":"Point","coordinates":[13.386934904624612,52.541323274297916]},"properties":{"board":"kilter","name":"Elektra Boulderhalle","src":"hangtime"}},{"type":"Feature","geometry":{"type":"Point","coordinates":[6.98552,51.45539]},"properties":{"board":"kilter","name":"Element Boulders Essen","src":"hangtime"}},{"type":"Feature","geometry":{"type":"Point","coordinates":[9.50055,51.31985]},"properties":{"board":"kilter","name":"Element Boulders Kassel","src":"hangtime"}},{"type":"Feature","geometry":{"type":"Point","coordinates":[6.95315,50.93675]},"properties":{"board":"kilter","name":"Element Boulders Köln City","src":"hangtime"}},{"type":"Feature","geometry":{"type":"Point","coordinates":[11.53269,48.10205]},"properties":{"board":"kilter","name":"Element Boulders München","src":"hangtime"}},{"type":"Feature","geometry":{"type":"Point","coordinates":[-123.09808,44.05637]},"properties":{"board":"kilter","name":"Elevation Bouldering Gym","src":"hangtime"}},{"type":"Feature","geometry":{"type":"Point","coordinates":[-111.82847,41.76405]},"properties":{"board":"kilter","name":"Elevation Rock Gym","src":"hangtime"}},{"type":"Feature","geometry":{"type":"Point","coordinates":[-84.36607,39.32092]},"properties":{"board":"kilter","name":"Elite Performance Climbing","src":"hangtime"}},{"type":"Feature","geometry":{"type":"Point","coordinates":[11.336683864416273,50.99519942062045]},"properties":{"board":"kilter","name":"EnergieWände Kletterhalle Weimar","src":"hangtime"}},{"type":"Feature","geometry":{"type":"Point","coordinates":[4.600441957672755,50.67039479401434]},"properties":{"board":"kilter","name":"Entre Ciel & Terre | Blocry","src":"hangtime"}},{"type":"Feature","geometry":{"type":"Point","coordinates":[-84.15605,9.93965]},"properties":{"board":"kilter","name":"Eskalar","src":"hangtime"}},{"type":"Feature","geometry":{"type":"Point","coordinates":[11.09001,60.78878]},"properties":{"board":"kilter","name":"Espern Aktivitetspark","src":"hangtime"}},{"type":"Feature","geometry":{"type":"Point","coordinates":[-105.50223,40.3834]},"properties":{"board":"kilter","name":"Estes Park Rock Climbing","src":"hangtime"}},{"type":"Feature","geometry":{"type":"Point","coordinates":[-79.3687,43.64433]},"properties":{"board":"kilter","name":"Ethos Climbing","src":"hangtime"}},{"type":"Feature","geometry":{"type":"Point","coordinates":[-0.13964,51.5244]},"properties":{"board":"kilter","name":"EustonWall Climbing Centre","src":"hangtime"}},{"type":"Feature","geometry":{"type":"Point","coordinates":[-77.49863,38.74188]},"properties":{"board":"kilter","name":"Evolution Boulders","src":"hangtime"}},{"type":"Feature","geometry":{"type":"Point","coordinates":[-117.82838,33.7232]},"properties":{"board":"kilter","name":"Evolv Climbing HQ","src":"hangtime"}},{"type":"Feature","geometry":{"type":"Point","coordinates":[9.91261,53.56363]},"properties":{"board":"kilter","name":"FLASHH Hamburg","src":"hangtime"}},{"type":"Feature","geometry":{"type":"Point","coordinates":[-46.70543,-23.62735]},"properties":{"board":"kilter","name":"Fabrica Escalade Châcara","src":"hangtime"}},{"type":"Feature","geometry":{"type":"Point","coordinates":[26.0954,44.42102]},"properties":{"board":"kilter","name":"Fabrica de Căţărat","src":"hangtime"}},{"type":"Feature","geometry":{"type":"Point","coordinates":[3.976567968979885,50.459092047240844]},"properties":{"board":"kilter","name":"Face Nord","src":"hangtime"}},{"type":"Feature","geometry":{"type":"Point","coordinates":[-113.63903,53.5455]},"properties":{"board":"kilter","name":"Factory Climbing","src":"hangtime"}},{"type":"Feature","geometry":{"type":"Point","coordinates":[0.6407,41.60589]},"properties":{"board":"kilter","name":"Fanatic Lleida","src":"hangtime"}},{"type":"Feature","geometry":{"type":"Point","coordinates":[-82.54514,35.42804]},"properties":{"board":"kilter","name":"Fiddlehead","src":"hangtime"}},{"type":"Feature","geometry":{"type":"Point","coordinates":[7.32613,52.49089]},"properties":{"board":"kilter","name":"Fingerfood Boulderhalle","src":"hangtime"}},{"type":"Feature","geometry":{"type":"Point","coordinates":[-88.0244765595274,42.09078035751713]},"properties":{"board":"kilter","name":"First Ascent Arlington Heights","src":"hangtime"}},{"type":"Feature","geometry":{"type":"Point","coordinates":[-87.62865,41.88408]},"properties":{"board":"kilter","name":"First Ascent Block 37","src":"hangtime"}},{"type":"Feature","geometry":{"type":"Point","coordinates":[-80.24359,36.10815]},"properties":{"board":"kilter","name":"FirstHand Climbing","src":"hangtime"}},{"type":"Feature","geometry":{"type":"Point","coordinates":[-111.61827,35.20247]},"properties":{"board":"kilter","name":"Flagstaff Climbing - Main Street Boulders","src":"hangtime"}},{"type":"Feature","geometry":{"type":"Point","coordinates":[-2.58109,51.44587]},"properties":{"board":"kilter","name":"Flashpoint Bristol","src":"hangtime"}},{"type":"Feature","geometry":{"type":"Point","coordinates":[-3.19767,51.46194]},"properties":{"board":"kilter","name":"Flashpoint Cardiff","src":"hangtime"}},{"type":"Feature","geometry":{"type":"Point","coordinates":[19.11432501487862,47.51476813536509]},"properties":{"board":"kilter","name":"Fless!","src":"hangtime"}},{"type":"Feature","geometry":{"type":"Point","coordinates":[153.00452,-26.67337]},"properties":{"board":"kilter","name":"Flow Bouldering","src":"hangtime"}},{"type":"Feature","geometry":{"type":"Point","coordinates":[17.06328,51.13489]},"properties":{"board":"kilter","name":"Flow Climbing Space","src":"hangtime"}},{"type":"Feature","geometry":{"type":"Point","coordinates":[-117.20452,34.05562]},"properties":{"board":"kilter","name":"Flowstone Climbing","src":"hangtime"}},{"type":"Feature","geometry":{"type":"Point","coordinates":[-117.21428,33.16574]},"properties":{"board":"kilter","name":"Flux Training Center","src":"hangtime"}},{"type":"Feature","geometry":{"type":"Point","coordinates":[14.84421,46.81814]},"properties":{"board":"kilter","name":"Fläsh Die Boulderhalle","src":"hangtime"}},{"type":"Feature","geometry":{"type":"Point","coordinates":[-81.83502,26.49338]},"properties":{"board":"kilter","name":"Fort Rock Climbing Center","src":"hangtime"}},{"type":"Feature","geometry":{"type":"Point","coordinates":[11.09393,49.71407]},"properties":{"board":"kilter","name":"Frankenjura Academy","src":"hangtime"}},{"type":"Feature","geometry":{"type":"Point","coordinates":[10.9109,59.23275]},"properties":{"board":"kilter","name":"Fredrikstad Buldresenter","src":"hangtime"}},{"type":"Feature","geometry":{"type":"Point","coordinates":[-114.00908,46.88339]},"properties":{"board":"kilter","name":"Freestone Climbing Center","src":"hangtime"}},{"type":"Feature","geometry":{"type":"Point","coordinates":[143.82605,-37.57745]},"properties":{"board":"kilter","name":"Friction Bouldering","src":"hangtime"}},{"type":"Feature","geometry":{"type":"Point","coordinates":[-96.66461,43.54531]},"properties":{"board":"kilter","name":"Frontier Climbing & Fitness","src":"hangtime"}},{"type":"Feature","geometry":{"type":"Point","coordinates":[5.90513,61.44946]},"properties":{"board":"kilter","name":"Førde Klatresenter","src":"hangtime"}},{"type":"Feature","geometry":{"type":"Point","coordinates":[-105.09968,39.90652]},"properties":{"board":"kilter","name":"G1 Climbing + Fitness Broomfield","src":"hangtime"}},{"type":"Feature","geometry":{"type":"Point","coordinates":[121.43915,31.19327]},"properties":{"board":"kilter","name":"GOAT攀岩俱乐部","src":"hangtime"}},{"type":"Feature","geometry":{"type":"Point","coordinates":[8.7256,47.36121]},"properties":{"board":"kilter","name":"GRIFFIG","src":"hangtime"}},{"type":"Feature","geometry":{"type":"Point","coordinates":[5.83827,51.81311]},"properties":{"board":"kilter","name":"GRIP Boulderhal","src":"hangtime"}},{"type":"Feature","geometry":{"type":"Point","coordinates":[-1.14918,38.03211]},"properties":{"board":"kilter","name":"GUD Climbing Gym","src":"hangtime"}},{"type":"Feature","geometry":{"type":"Point","coordinates":[-85.89038,42.96643]},"properties":{"board":"kilter","name":"GVSU Climbing Center","src":"hangtime"}},{"type":"Feature","geometry":{"type":"Point","coordinates":[-0.43244,39.16461]},"properties":{"board":"kilter","name":"Gaia Climb Alzira","src":"hangtime"}},{"type":"Feature","geometry":{"type":"Point","coordinates":[-72.90982,-41.42563]},"properties":{"board":"kilter","name":"Galpon Boulder","src":"hangtime"}},{"type":"Feature","geometry":{"type":"Point","coordinates":[-76.4415,38.24316]},"properties":{"board":"kilter","name":"Gary's Garage","src":"hangtime"}},{"type":"Feature","geometry":{"type":"Point","coordinates":[-112.10179,33.70723]},"properties":{"board":"kilter","name":"Gecko Climbing Gym","src":"hangtime"}},{"type":"Feature","geometry":{"type":"Point","coordinates":[8.22586,60.53655]},"properties":{"board":"kilter","name":"Geilo Klatreklubb","src":"hangtime"}},{"type":"Feature","geometry":{"type":"Point","coordinates":[-4.73601,41.6231]},"properties":{"board":"kilter","name":"Geko Aventura","src":"hangtime"}},{"type":"Feature","geometry":{"type":"Point","coordinates":[1.99852,41.5625]},"properties":{"board":"kilter","name":"GeoBoulder","src":"hangtime"}},{"type":"Feature","geometry":{"type":"Point","coordinates":[-2.66905,42.83755]},"properties":{"board":"kilter","name":"Gimnasio K2","src":"hangtime"}},{"type":"Feature","geometry":{"type":"Point","coordinates":[10.63072,59.91758]},"properties":{"board":"kilter","name":"Gneis Lilleaker","src":"hangtime"}},{"type":"Feature","geometry":{"type":"Point","coordinates":[114.22448,22.30915]},"properties":{"board":"kilter","name":"GoNature HK Ltd","src":"hangtime"}},{"type":"Feature","geometry":{"type":"Point","coordinates":[6.16269753995282,48.6080475097524]},"properties":{"board":"kilter","name":"Goat Rocks","src":"hangtime"}},{"type":"Feature","geometry":{"type":"Point","coordinates":[-121.03081,39.21917]},"properties":{"board":"kilter","name":"Gold Crush Climbing Gym","src":"hangtime"}},{"type":"Feature","geometry":{"type":"Point","coordinates":[107.55413,-6.99707]},"properties":{"board":"kilter","name":"Goodang Bouldering","src":"hangtime"}},{"type":"Feature","geometry":{"type":"Point","coordinates":[-108.59074,39.09367]},"properties":{"board":"kilter","name":"Grand Valley Climbing","src":"hangtime"}},{"type":"Feature","geometry":{"type":"Point","coordinates":[-72.26766,42.92577]},"properties":{"board":"kilter","name":"GraniteWorks Gym","src":"hangtime"}},{"type":"Feature","geometry":{"type":"Point","coordinates":[2.02887,41.54682]},"properties":{"board":"kilter","name":"Gravetat Zero","src":"hangtime"}},{"type":"Feature","geometry":{"type":"Point","coordinates":[-6.32355,53.33588]},"properties":{"board":"kilter","name":"Gravity Climbing Centre","src":"hangtime"}},{"type":"Feature","geometry":{"type":"Point","coordinates":[-107.80896,37.22925]},"properties":{"board":"kilter","name":"Gravity Lab","src":"hangtime"}},{"type":"Feature","geometry":{"type":"Point","coordinates":[-74.06459,40.70857]},"properties":{"board":"kilter","name":"Gravity Vault - Jersey City","src":"hangtime"}},{"type":"Feature","geometry":{"type":"Point","coordinates":[-74.59476,40.33661]},"properties":{"board":"kilter","name":"Gravity Vault Princeton","src":"hangtime"}},{"type":"Feature","geometry":{"type":"Point","coordinates":[-74.11747,41.05193]},"properties":{"board":"kilter","name":"Gravity Vault Upper Saddle River","src":"hangtime"}},{"type":"Feature","geometry":{"type":"Point","coordinates":[13.81049,45.65702]},"properties":{"board":"kilter","name":"Gravità Zero","src":"hangtime"}},{"type":"Feature","geometry":{"type":"Point","coordinates":[-122.27017,37.81005]},"properties":{"board":"kilter","name":"Great Western Power Company","src":"hangtime"}},{"type":"Feature","geometry":{"type":"Point","coordinates":[-89.38128,43.03304]},"properties":{"board":"kilter","name":"Greater Heights Climbing","src":"hangtime"}},{"type":"Feature","geometry":{"type":"Point","coordinates":[120.10717,30.32416]},"properties":{"board":"kilter","name":"Green Geckos Climbing Base 绿壁虎攀岩基地","src":"hangtime"}},{"type":"Feature","geometry":{"type":"Point","coordinates":[-72.95569,43.61992]},"properties":{"board":"kilter","name":"Green Mountain Rock Climbing Center","src":"hangtime"}},{"type":"Feature","geometry":{"type":"Point","coordinates":[9.70972,47.4945]},"properties":{"board":"kilter","name":"Greifbar Boulderhalle Bregenz","src":"hangtime"}},{"type":"Feature","geometry":{"type":"Point","coordinates":[9.50302,47.65225]},"properties":{"board":"kilter","name":"Greifbar-Boulderhalle Friedrichshafen","src":"hangtime"}},{"type":"Feature","geometry":{"type":"Point","coordinates":[10.52019,52.27931]},"properties":{"board":"kilter","name":"Greifhaus Braunschweig","src":"hangtime"}},{"type":"Feature","geometry":{"type":"Point","coordinates":[13.36222,54.09661]},"properties":{"board":"kilter","name":"Greifsbloc e.V. Boulderverein","src":"hangtime"}},{"type":"Feature","geometry":{"type":"Point","coordinates":[9.67442,48.70867]},"properties":{"board":"kilter","name":"GriP Kletter & Vereinszentrum","src":"hangtime"}},{"type":"Feature","geometry":{"type":"Point","coordinates":[9.216486042327244,48.89278735536054]},"properties":{"board":"kilter","name":"Griffwerk Ludwigsburg","src":"hangtime"}},{"type":"Feature","geometry":{"type":"Point","coordinates":[6.62476,46.52936]},"properties":{"board":"kilter","name":"Grimper.ch Lausanne-Beaulieu","src":"hangtime"}},{"type":"Feature","geometry":{"type":"Point","coordinates":[6.05331,46.22459]},"properties":{"board":"kilter","name":"Grimper.ch Satigny","src":"hangtime"}},{"type":"Feature","geometry":{"type":"Point","coordinates":[-108.63747,39.1082]},"properties":{"board":"kilter","name":"Grip Bouldering","src":"hangtime"}},{"type":"Feature","geometry":{"type":"Point","coordinates":[10.91238,44.55963]},"properties":{"board":"kilter","name":"Grip Climbing Gym","src":"hangtime"}},{"type":"Feature","geometry":{"type":"Point","coordinates":[-106.5703,52.15057]},"properties":{"board":"kilter","name":"Grip It Climbing - Nelson Rd","src":"hangtime"}},{"type":"Feature","geometry":{"type":"Point","coordinates":[10.4664,63.43269]},"properties":{"board":"kilter","name":"Grip Klatring Leangen","src":"hangtime"}},{"type":"Feature","geometry":{"type":"Point","coordinates":[-81.12092,38.02368]},"properties":{"board":"kilter","name":"Gripped Fitness","src":"hangtime"}},{"type":"Feature","geometry":{"type":"Point","coordinates":[6.59009,53.23124]},"properties":{"board":"kilter","name":"Gropo Bouldergym Groningen","src":"hangtime"}},{"type":"Feature","geometry":{"type":"Point","coordinates":[-117.0983,32.78099]},"properties":{"board":"kilter","name":"Grotto Climbing & Yoga Alvarado","src":"hangtime"}},{"type":"Feature","geometry":{"type":"Point","coordinates":[-117.12735,32.89573]},"properties":{"board":"kilter","name":"Grotto Climbing & Yoga Miramar","src":"hangtime"}},{"type":"Feature","geometry":{"type":"Point","coordinates":[103.85604,1.31563]},"properties":{"board":"kilter","name":"Ground Up Climbing","src":"hangtime"}},{"type":"Feature","geometry":{"type":"Point","coordinates":[-123.152754,49.723956]},"properties":{"board":"kilter","name":"Ground Up Climbing Centre","src":"hangtime"}},{"type":"Feature","geometry":{"type":"Point","coordinates":[-61.50041,16.21825]},"properties":{"board":"kilter","name":"Gwada Grimpe","src":"hangtime"}},{"type":"Feature","geometry":{"type":"Point","coordinates":[-110.78286,43.47295]},"properties":{"board":"kilter","name":"Gym 22","src":"hangtime"}},{"type":"Feature","geometry":{"type":"Point","coordinates":[6.7028,61.90488]},"properties":{"board":"kilter","name":"Gym Stryn","src":"hangtime"}},{"type":"Feature","geometry":{"type":"Point","coordinates":[18.17953,49.82052]},"properties":{"board":"kilter","name":"HANGAR Ostrava","src":"hangtime"}},{"type":"Feature","geometry":{"type":"Point","coordinates":[121.38769,31.22215]},"properties":{"board":"kilter","name":"HOWL","src":"hangtime"}},{"type":"Feature","geometry":{"type":"Point","coordinates":[5.9873,61.90295]},"properties":{"board":"kilter","name":"Hamna Aktivitet Og Helse","src":"hangtime"}},{"type":"Feature","geometry":{"type":"Point","coordinates":[-0.36189,51.47055]},"properties":{"board":"kilter","name":"Hang.","src":"hangtime"}},{"type":"Feature","geometry":{"type":"Point","coordinates":[-117.3407,33.9917]},"properties":{"board":"kilter","name":"Hangar 18 East Riverside","src":"hangtime"}},{"type":"Feature","geometry":{"type":"Point","coordinates":[-118.16111,33.80454]},"properties":{"board":"kilter","name":"Hangar 18 Long Beach","src":"hangtime"}},{"type":"Feature","geometry":{"type":"Point","coordinates":[-117.68207,33.61653]},"properties":{"board":"kilter","name":"Hangar 18 Mission Viejo","src":"hangtime"}},{"type":"Feature","geometry":{"type":"Point","coordinates":[-117.54372,34.0898]},"properties":{"board":"kilter","name":"Hangar 18 Rancho Cucamonga","src":"hangtime"}},{"type":"Feature","geometry":{"type":"Point","coordinates":[-117.60077,33.4537]},"properties":{"board":"kilter","name":"Hangar 18 San Clemente","src":"hangtime"}},{"type":"Feature","geometry":{"type":"Point","coordinates":[-118.36604,33.9018]},"properties":{"board":"kilter","name":"Hangar 18 South Bay","src":"hangtime"}},{"type":"Feature","geometry":{"type":"Point","coordinates":[-0.34436,51.58083]},"properties":{"board":"kilter","name":"HarroWall Climbing Centre","src":"hangtime"}},{"type":"Feature","geometry":{"type":"Point","coordinates":[16.53449,68.80432]},"properties":{"board":"kilter","name":"Harstad Klatreklub","src":"hangtime"}},{"type":"Feature","geometry":{"type":"Point","coordinates":[5.67393,62.32548]},"properties":{"board":"kilter","name":"Herøy klatreklubb","src":"hangtime"}},{"type":"Feature","geometry":{"type":"Point","coordinates":[-157.85635,21.29881]},"properties":{"board":"kilter","name":"HiClimb","src":"hangtime"}},{"type":"Feature","geometry":{"type":"Point","coordinates":[-120.2174,39.32747]},"properties":{"board":"kilter","name":"High Altitude Fitness Truckee","src":"hangtime"}},{"type":"Feature","geometry":{"type":"Point","coordinates":[-108.73918,42.83654]},"properties":{"board":"kilter","name":"High Mountain Fitness","src":"hangtime"}},{"type":"Feature","geometry":{"type":"Point","coordinates":[-84.87391,35.18317]},"properties":{"board":"kilter","name":"High Point Climbing Cleveland","src":"hangtime"}},{"type":"Feature","geometry":{"type":"Point","coordinates":[-86.66691,34.73803]},"properties":{"board":"kilter","name":"High Point Climbing Huntsville","src":"hangtime"}},{"type":"Feature","geometry":{"type":"Point","coordinates":[-81.40843,28.56808]},"properties":{"board":"kilter","name":"High Point Climbing Orlando","src":"hangtime"}},{"type":"Feature","geometry":{"type":"Point","coordinates":[7.097093895509357,50.75227115333487]},"properties":{"board":"kilter","name":"Hochschulsport Uni Bonn","src":"hangtime"}},{"type":"Feature","geometry":{"type":"Point","coordinates":[-79.36013,43.76222]},"properties":{"board":"kilter","name":"Hogtown Boulders","src":"hangtime"}},{"type":"Feature","geometry":{"type":"Point","coordinates":[11.712128911084726,55.7203436012916]},"properties":{"board":"kilter","name":"Holbæk Klatreklub","src":"hangtime"}},{"type":"Feature","geometry":{"type":"Point","coordinates":[114.19957,22.38584]},"properties":{"board":"kilter","name":"Hong Kong Climbing Park","src":"hangtime"}},{"type":"Feature","geometry":{"type":"Point","coordinates":[-73.33714,45.57792]},"properties":{"board":"kilter","name":"Hook Bouldering","src":"hangtime"}},{"type":"Feature","geometry":{"type":"Point","coordinates":[11.17952,60.2502]},"properties":{"board":"kilter","name":"Hoyt Under Taket Letohallen","src":"hangtime"}},{"type":"Feature","geometry":{"type":"Point","coordinates":[-79.35749,43.85696]},"properties":{"board":"kilter","name":"Hub Climbing Markham","src":"hangtime"}},{"type":"Feature","geometry":{"type":"Point","coordinates":[-79.6534,43.57386]},"properties":{"board":"kilter","name":"Hub Climbing Mississauga","src":"hangtime"}},{"type":"Feature","geometry":{"type":"Point","coordinates":[-73.73281,42.74057]},"properties":{"board":"kilter","name":"Hudson Boulders","src":"hangtime"}},{"type":"Feature","geometry":{"type":"Point","coordinates":[11.33811,60.12731]},"properties":{"board":"kilter","name":"Hvam IL Klatring","src":"hangtime"}},{"type":"Feature","geometry":{"type":"Point","coordinates":[6.06983,61.21709]},"properties":{"board":"kilter","name":"Høyanger Klatreklubb","src":"hangtime"}},{"type":"Feature","geometry":{"type":"Point","coordinates":[10.32679,59.28207]},"properties":{"board":"kilter","name":"Høyt Under Taket Klatresenter Tønsberg","src":"hangtime"}},{"type":"Feature","geometry":{"type":"Point","coordinates":[5.25244,60.29332]},"properties":{"board":"kilter","name":"Høyt Under Taket Kokstad","src":"hangtime"}},{"type":"Feature","geometry":{"type":"Point","coordinates":[10.67336,59.41667]},"properties":{"board":"kilter","name":"Høyt Under Taket Moss","src":"hangtime"}},{"type":"Feature","geometry":{"type":"Point","coordinates":[9.61253,59.19889]},"properties":{"board":"kilter","name":"Høyt Under Taket Skien","src":"hangtime"}},{"type":"Feature","geometry":{"type":"Point","coordinates":[7.48804,63.06181]},"properties":{"board":"kilter","name":"I.L. Havørn Klatring","src":"hangtime"}},{"type":"Feature","geometry":{"type":"Point","coordinates":[11.87572,46.01495]},"properties":{"board":"kilter","name":"IL DADO","src":"hangtime"}},{"type":"Feature","geometry":{"type":"Point","coordinates":[-8.87263,38.53296]},"properties":{"board":"kilter","name":"INWALL Climbing Center","src":"hangtime"}},{"type":"Feature","geometry":{"type":"Point","coordinates":[5.59582,50.62304]},"properties":{"board":"kilter","name":"ISATIS","src":"hangtime"}},{"type":"Feature","geometry":{"type":"Point","coordinates":[5.84161,50.99175]},"properties":{"board":"kilter","name":"IVY Climbing","src":"hangtime"}},{"type":"Feature","geometry":{"type":"Point","coordinates":[-73.04079,-36.81501]},"properties":{"board":"kilter","name":"Ignea Boulder","src":"hangtime"}},{"type":"Feature","geometry":{"type":"Point","coordinates":[2.69071,39.5735]},"properties":{"board":"kilter","name":"In Rock Escalada","src":"hangtime"}},{"type":"Feature","geometry":{"type":"Point","coordinates":[-0.56955,42.56289]},"properties":{"board":"kilter","name":"Indoorwall Jaca","src":"hangtime"}},{"type":"Feature","geometry":{"type":"Point","coordinates":[11.12495,45.99849]},"properties":{"board":"kilter","name":"Infinity Boulder","src":"hangtime"}},{"type":"Feature","geometry":{"type":"Point","coordinates":[1.61461,41.58233]},"properties":{"board":"kilter","name":"Ingravita","src":"hangtime"}},{"type":"Feature","geometry":{"type":"Point","coordinates":[-80.82522,35.24204]},"properties":{"board":"kilter","name":"Inner Peaks NoDa","src":"hangtime"}},{"type":"Feature","geometry":{"type":"Point","coordinates":[114.21099,22.53599]},"properties":{"board":"kilter","name":"International College Hong Kong","src":"hangtime"}},{"type":"Feature","geometry":{"type":"Point","coordinates":[34.78945,32.06496]},"properties":{"board":"kilter","name":"Isaac Climbing","src":"hangtime"}},{"type":"Feature","geometry":{"type":"Point","coordinates":[-0.28923,49.15363]},"properties":{"board":"kilter","name":"Isatix","src":"hangtime"}},{"type":"Feature","geometry":{"type":"Point","coordinates":[13.53526,59.38186]},"properties":{"board":"kilter","name":"JumpYard Karlstad","src":"hangtime"}},{"type":"Feature","geometry":{"type":"Point","coordinates":[13.08567,63.39554]},"properties":{"board":"kilter","name":"JumpYard Åre","src":"hangtime"}},{"type":"Feature","geometry":{"type":"Point","coordinates":[-81.21752,42.99832]},"properties":{"board":"kilter","name":"Junction Climbing Centre","src":"hangtime"}},{"type":"Feature","geometry":{"type":"Point","coordinates":[14.51789,50.14204]},"properties":{"board":"kilter","name":"Jungle Sport Park","src":"hangtime"}},{"type":"Feature","geometry":{"type":"Point","coordinates":[114.20741,22.39078]},"properties":{"board":"kilter","name":"Just Climb Shek Mun","src":"hangtime"}},{"type":"Feature","geometry":{"type":"Point","coordinates":[18.72795,49.22087]},"properties":{"board":"kilter","name":"K2 Žilina","src":"hangtime"}},{"type":"Feature","geometry":{"type":"Point","coordinates":[25.45804,64.99112]},"properties":{"board":"kilter","name":"Kaamos Climbing","src":"hangtime"}},{"type":"Feature","geometry":{"type":"Point","coordinates":[5.971771073018263,52.22466112634577]},"properties":{"board":"kilter","name":"Kei Boulderhal Apeldoorn","src":"hangtime"}},{"type":"Feature","geometry":{"type":"Point","coordinates":[5.41522,52.18036]},"properties":{"board":"kilter","name":"Kei Boulderhal De Hoef","src":"hangtime"}},{"type":"Feature","geometry":{"type":"Point","coordinates":[5.36479,52.15676]},"properties":{"board":"kilter","name":"Kei Boulderhal Wagenwerkplaats","src":"hangtime"}},{"type":"Feature","geometry":{"type":"Point","coordinates":[24.84934,60.23941]},"properties":{"board":"kilter","name":"KiipeilyAreena Ristikko","src":"hangtime"}},{"type":"Feature","geometry":{"type":"Point","coordinates":[-105.24111947351396,40.02640205076102]},"properties":{"board":"kilter","name":"Kilter HQ","src":"hangtime"}},{"type":"Feature","geometry":{"type":"Point","coordinates":[-105.13883549813411,40.192383900269895]},"properties":{"board":"kilter","name":"Kilter Studio","src":"hangtime"}},{"type":"Feature","geometry":{"type":"Point","coordinates":[126.99862,37.26365]},"properties":{"board":"kilter","name":"Kin:d","src":"hangtime"}},{"type":"Feature","geometry":{"type":"Point","coordinates":[6.18367,62.46913]},"properties":{"board":"kilter","name":"Klatreklubben Ålesund","src":"hangtime"}},{"type":"Feature","geometry":{"type":"Point","coordinates":[10.81134,59.9101]},"properties":{"board":"kilter","name":"Klatreverket Bryn","src":"hangtime"}},{"type":"Feature","geometry":{"type":"Point","coordinates":[7.98027,58.1472]},"properties":{"board":"kilter","name":"Klatreverket Kristiansand","src":"hangtime"}},{"type":"Feature","geometry":{"type":"Point","coordinates":[10.7579,59.92948]},"properties":{"board":"kilter","name":"Klatreverket Løkka","src":"hangtime"}},{"type":"Feature","geometry":{"type":"Point","coordinates":[10.13034,59.75349]},"properties":{"board":"kilter","name":"Klatreverket Åssiden","src":"hangtime"}},{"type":"Feature","geometry":{"type":"Point","coordinates":[18.09016,59.35825]},"properties":{"board":"kilter","name":"Klatterverket Gasverket","src":"hangtime"}},{"type":"Feature","geometry":{"type":"Point","coordinates":[12.1654,47.84749]},"properties":{"board":"kilter","name":"Kletter & Boulderhalle Rosenheim","src":"hangtime"}},{"type":"Feature","geometry":{"type":"Point","coordinates":[13.03308,47.82591]},"properties":{"board":"kilter","name":"Kletter & Boulderhalle Salzburg","src":"hangtime"}},{"type":"Feature","geometry":{"type":"Point","coordinates":[7.60992,51.97887]},"properties":{"board":"kilter","name":"KletterBar Münster","src":"hangtime"}},{"type":"Feature","geometry":{"type":"Point","coordinates":[15.52454,47.54721]},"properties":{"board":"kilter","name":"Kletterakademie Mitterdorf - Sport und Funpark Mürztal","src":"hangtime"}},{"type":"Feature","geometry":{"type":"Point","coordinates":[15.54574,46.78353]},"properties":{"board":"kilter","name":"Kletterhalle Alpenverein Leibnitz","src":"hangtime"}},{"type":"Feature","geometry":{"type":"Point","coordinates":[7.398761999558282,49.224821502854034]},"properties":{"board":"kilter","name":"Kletterhalle Camp 4","src":"hangtime"}},{"type":"Feature","geometry":{"type":"Point","coordinates":[11.984181870524345,47.46782442061603]},"properties":{"board":"kilter","name":"Kletterhalle Kundl","src":"hangtime"}},{"type":"Feature","geometry":{"type":"Point","coordinates":[12.02964,50.2491]},"properties":{"board":"kilter","name":"Kletterwache 95111","src":"hangtime"}},{"type":"Feature","geometry":{"type":"Point","coordinates":[8.97326,47.74147]},"properties":{"board":"kilter","name":"Kletterwerk Radolfzell","src":"hangtime"}},{"type":"Feature","geometry":{"type":"Point","coordinates":[11.41339,47.27722]},"properties":{"board":"kilter","name":"Kletterzentrum Innsbruck","src":"hangtime"}},{"type":"Feature","geometry":{"type":"Point","coordinates":[-75.9264,45.64883]},"properties":{"board":"kilter","name":"Klimat","src":"hangtime"}},{"type":"Feature","geometry":{"type":"Point","coordinates":[-75.71747,45.40876]},"properties":{"board":"kilter","name":"Klimat 2","src":"hangtime"}},{"type":"Feature","geometry":{"type":"Point","coordinates":[-2.16232,43.2821]},"properties":{"board":"kilter","name":"Klimb Zarautz","src":"hangtime"}},{"type":"Feature","geometry":{"type":"Point","coordinates":[4.79931,51.17219]},"properties":{"board":"kilter","name":"Klimkaffee Herentals","src":"hangtime"}},{"type":"Feature","geometry":{"type":"Point","coordinates":[4.49298,51.02398]},"properties":{"board":"kilter","name":"Klimkaffee Mechelen","src":"hangtime"}},{"type":"Feature","geometry":{"type":"Point","coordinates":[2.98426,51.1917]},"properties":{"board":"kilter","name":"Klimkaffee Oudenburg","src":"hangtime"}},{"type":"Feature","geometry":{"type":"Point","coordinates":[3.75706,51.03327]},"properties":{"board":"kilter","name":"Klimzaal Arsenaal","src":"hangtime"}},